{
"type": "FeatureCollection",
"name": "nancy_features_20260219_120507",
"crs": { "type": "name", "properties": { "name": "urn:ogc:def:crs:OGC:1.3:CRS84" } },
"features": [
{ "type": "Feature", "properties": { "element": "node", "id": 9903227, "name": "Gentilly", "amenity": null, "highway": "bus_stop" }, "geometry": { "type": "Point", "coordinates": [ 6.1393095, 48.6952515 ] } },
{ "type": "Feature", "properties": { "element": "node", "id": 10467154, "name": "Place Godefroy de Bouillon", "amenity": null, "highway": "bus_stop" }, "geometry": { "type": "Point", "coordinates": [ 6.1682625, 48.6928836 ] } },
{ "type": "Feature", "properties": { "element": "node", "id": 10468444, "name": "Alix Le Clerc", "amenity": null, "highway": "bus_stop" }, "geometry": { "type": "Point", "coordinates": [ 6.1642179, 48.7013919 ] } },
{ "type": "Feature", "properties": { "element": "node", "id": 10531881, "name": "Gare – Simone Veil", "amenity": null, "highway": "bus_stop" }, "geometry": { "type": "Point", "coordinates": [ 6.1745178, 48.6908396 ] } },
{ "type": "Feature", "properties": { "element": "node", "id": 90662767, "name": "Joli Coeur", "amenity": null, "highway": "bus_stop" }, "geometry": { "type": "Point", "coordinates": [ 6.1744372, 48.7023742 ] } },
{ "type": "Feature", "properties": { "element": "node", "id": 90663985, "name": "Fontenoy", "amenity": null, "highway": "bus_stop" }, "geometry": { "type": "Point", "coordinates": [ 6.1755818, 48.704467 ] } },
{ "type": "Feature", "properties": { "element": "node", "id": 137828605, "name": "Painlevé", "amenity": null, "highway": "bus_stop" }, "geometry": { "type": "Point", "coordinates": [ 6.1658469, 48.6823679 ] } },
{ "type": "Feature", "properties": { "element": "node", "id": 164256180, "name": "Cimetière du Sud", "amenity": null, "highway": "bus_stop" }, "geometry": { "type": "Point", "coordinates": [ 6.1912894, 48.6765288 ] } },
{ "type": "Feature", "properties": { "element": "node", "id": 166298376, "name": "Dieuze", "amenity": null, "highway": "bus_stop" }, "geometry": { "type": "Point", "coordinates": [ 6.1926225, 48.6981232 ] } },
{ "type": "Feature", "properties": { "element": "node", "id": 240375812, "name": "Arsenal", "amenity": null, "highway": "bus_stop" }, "geometry": { "type": "Point", "coordinates": [ 6.1783371, 48.6965976 ] } },
{ "type": "Feature", "properties": { "element": "node", "id": 253154452, "name": "Haut Bourgeois", "amenity": null, "highway": "bus_stop" }, "geometry": { "type": "Point", "coordinates": [ 6.1768855, 48.6978276 ] } },
{ "type": "Feature", "properties": { "element": "node", "id": 253154455, "name": "Porte de la Craffe", "amenity": null, "highway": "bus_stop" }, "geometry": { "type": "Point", "coordinates": [ 6.1783265, 48.6982791 ] } },
{ "type": "Feature", "properties": { "element": "node", "id": 254343664, "name": "Français", "amenity": null, "highway": "bus_stop" }, "geometry": { "type": "Point", "coordinates": [ 6.1525611, 48.6934348 ] } },
{ "type": "Feature", "properties": { "element": "node", "id": 258741851, "name": "Braconnot", "amenity": null, "highway": "bus_stop" }, "geometry": { "type": "Point", "coordinates": [ 6.1792268, 48.6989229 ] } },
{ "type": "Feature", "properties": { "element": "node", "id": 313719091, "name": "Place Commanderie", "amenity": "bicycle_rental", "highway": null }, "geometry": { "type": "Point", "coordinates": [ 6.1674456, 48.6858518 ] } },
{ "type": "Feature", "properties": { "element": "node", "id": 313719092, "name": "Commanderie - Chalnot", "amenity": "bicycle_rental", "highway": null }, "geometry": { "type": "Point", "coordinates": [ 6.1722364, 48.6868589 ] } },
{ "type": "Feature", "properties": { "element": "node", "id": 313719095, "name": "Gare Saint-Léon", "amenity": "bicycle_rental", "highway": null }, "geometry": { "type": "Point", "coordinates": [ 6.1722984, 48.6895927 ] } },
{ "type": "Feature", "properties": { "element": "node", "id": 313734278, "name": "Saint-Sébastien - Saint-Thiébaut", "amenity": "bicycle_rental", "highway": null }, "geometry": { "type": "Point", "coordinates": [ 6.1793496, 48.6886915 ] } },
{ "type": "Feature", "properties": { "element": "node", "id": 313734964, "name": "Marché Central", "amenity": "bicycle_rental", "highway": null }, "geometry": { "type": "Point", "coordinates": [ 6.1838427, 48.6891697 ] } },
{ "type": "Feature", "properties": { "element": "node", "id": 313735272, "name": "Place Dombasle", "amenity": "bicycle_rental", "highway": null }, "geometry": { "type": "Point", "coordinates": [ 6.1781901, 48.6918509 ] } },
{ "type": "Feature", "properties": { "element": "node", "id": 313736384, "name": "Place de la Carrière", "amenity": "bicycle_rental", "highway": null }, "geometry": { "type": "Point", "coordinates": [ 6.1821918, 48.6945726 ] } },
{ "type": "Feature", "properties": { "element": "node", "id": 313736860, "name": "Cours Léopold - Saint-Michel", "amenity": "bicycle_rental", "highway": null }, "geometry": { "type": "Point", "coordinates": [ 6.1767737, 48.6957178 ] } },
{ "type": "Feature", "properties": { "element": "node", "id": 313736862, "name": "Porte de la Craffe", "amenity": "bicycle_rental", "highway": null }, "geometry": { "type": "Point", "coordinates": [ 6.1779375, 48.6984552 ] } },
{ "type": "Feature", "properties": { "element": "node", "id": 313737047, "name": "3 Maisons - Charles V", "amenity": "bicycle_rental", "highway": null }, "geometry": { "type": "Point", "coordinates": [ 6.1769554, 48.7012234 ] } },
{ "type": "Feature", "properties": { "element": "node", "id": 313737534, "name": "Conservatoire - Manufacture", "amenity": "bicycle_rental", "highway": null }, "geometry": { "type": "Point", "coordinates": [ 6.1712253, 48.6957309 ] } },
{ "type": "Feature", "properties": { "element": "node", "id": 313739918, "name": "Hôpital Central", "amenity": "bicycle_rental", "highway": null }, "geometry": { "type": "Point", "coordinates": [ 6.1902912, 48.6834257 ] } },
{ "type": "Feature", "properties": { "element": "node", "id": 313739919, "name": "Hôpital Saint-Julien", "amenity": "bicycle_rental", "highway": null }, "geometry": { "type": "Point", "coordinates": [ 6.1929421, 48.685891 ] } },
{ "type": "Feature", "properties": { "element": "node", "id": 313740398, "name": "Place Colonel Driant", "amenity": "bicycle_rental", "highway": null }, "geometry": { "type": "Point", "coordinates": [ 6.1872489, 48.6920811 ] } },
{ "type": "Feature", "properties": { "element": "node", "id": 313745773, "name": "Port Sainte-Catherine", "amenity": "bicycle_rental", "highway": null }, "geometry": { "type": "Point", "coordinates": [ 6.1904219, 48.69553 ] } },
{ "type": "Feature", "properties": { "element": "node", "id": 313746483, "name": "Promenade des Canaux", "amenity": "bicycle_rental", "highway": null }, "geometry": { "type": "Point", "coordinates": [ 6.1963211, 48.6928364 ] } },
{ "type": "Feature", "properties": { "element": "node", "id": 313750604, "name": "Porte Saint-Nicolas", "amenity": "bicycle_rental", "highway": null }, "geometry": { "type": "Point", "coordinates": [ 6.1873286, 48.6848122 ] } },
{ "type": "Feature", "properties": { "element": "node", "id": 313752544, "name": "Dominicains - Fourier", "amenity": "bicycle_rental", "highway": null }, "geometry": { "type": "Point", "coordinates": [ 6.1833039, 48.6924393 ] } },
{ "type": "Feature", "properties": { "element": "node", "id": 471819996, "name": "Gare – Raymond Poincaré", "amenity": null, "highway": "bus_stop" }, "geometry": { "type": "Point", "coordinates": [ 6.1712878, 48.6898683 ] } },
{ "type": "Feature", "properties": { "element": "node", "id": 471820000, "name": "Bégonias", "amenity": null, "highway": "bus_stop" }, "geometry": { "type": "Point", "coordinates": [ 6.1692921, 48.6892648 ] } },
{ "type": "Feature", "properties": { "element": "node", "id": 490727318, "name": "Placieux", "amenity": null, "highway": "bus_stop" }, "geometry": { "type": "Point", "coordinates": [ 6.165396, 48.6769784 ] } },
{ "type": "Feature", "properties": { "element": "node", "id": 491248998, "name": "Charlemagne", "amenity": null, "highway": "bus_stop" }, "geometry": { "type": "Point", "coordinates": [ 6.1621228, 48.6816694 ] } },
{ "type": "Feature", "properties": { "element": "node", "id": 491249008, "name": "Painlevé", "amenity": null, "highway": "bus_stop" }, "geometry": { "type": "Point", "coordinates": [ 6.1663012, 48.6823243 ] } },
{ "type": "Feature", "properties": { "element": "node", "id": 526226537, "name": "Saint-Julien", "amenity": null, "highway": "bus_stop" }, "geometry": { "type": "Point", "coordinates": [ 6.1911788, 48.6859415 ] } },
{ "type": "Feature", "properties": { "element": "node", "id": 535259138, "name": "Brice", "amenity": null, "highway": "bus_stop" }, "geometry": { "type": "Point", "coordinates": [ 6.1818359, 48.6795214 ] } },
{ "type": "Feature", "properties": { "element": "node", "id": 538860142, "name": "Manufacture", "amenity": null, "highway": "bus_stop" }, "geometry": { "type": "Point", "coordinates": [ 6.1728527, 48.6961828 ] } },
{ "type": "Feature", "properties": { "element": "node", "id": 554160558, "name": "Clinchant", "amenity": null, "highway": "bus_stop" }, "geometry": { "type": "Point", "coordinates": [ 6.184689, 48.6788405 ] } },
{ "type": "Feature", "properties": { "element": "node", "id": 559175632, "name": "Préville", "amenity": null, "highway": "bus_stop" }, "geometry": { "type": "Point", "coordinates": [ 6.166267, 48.6875148 ] } },
{ "type": "Feature", "properties": { "element": "node", "id": 561145777, "name": "Jardiniers", "amenity": null, "highway": "bus_stop" }, "geometry": { "type": "Point", "coordinates": [ 6.1918088, 48.6900428 ] } },
{ "type": "Feature", "properties": { "element": "node", "id": 575270485, "name": "Nancy Thermal", "amenity": null, "highway": "bus_stop" }, "geometry": { "type": "Point", "coordinates": [ 6.1672696, 48.679157 ] } },
{ "type": "Feature", "properties": { "element": "node", "id": 575270486, "name": "Nancy Thermal", "amenity": null, "highway": "bus_stop" }, "geometry": { "type": "Point", "coordinates": [ 6.1673685, 48.6790277 ] } },
{ "type": "Feature", "properties": { "element": "node", "id": 575270488, "name": "ARTEM – Vauban", "amenity": null, "highway": "bus_stop" }, "geometry": { "type": "Point", "coordinates": [ 6.1718623, 48.6754479 ] } },
{ "type": "Feature", "properties": { "element": "node", "id": 575270492, "name": "Maréchal Juin", "amenity": null, "highway": "bus_stop" }, "geometry": { "type": "Point", "coordinates": [ 6.170229, 48.6776741 ] } },
{ "type": "Feature", "properties": { "element": "node", "id": 600738008, "name": "Chevert", "amenity": null, "highway": "bus_stop" }, "geometry": { "type": "Point", "coordinates": [ 6.1759395, 48.6728797 ] } },
{ "type": "Feature", "properties": { "element": "node", "id": 609748913, "name": "ARTEM – Gebhart", "amenity": null, "highway": "bus_stop" }, "geometry": { "type": "Point", "coordinates": [ 6.1735785, 48.6735619 ] } },
{ "type": "Feature", "properties": { "element": "node", "id": 618849911, "name": "Place Aimé Morot", "amenity": null, "highway": "bus_stop" }, "geometry": { "type": "Point", "coordinates": [ 6.1656606, 48.6994953 ] } },
{ "type": "Feature", "properties": { "element": "node", "id": 619399002, "name": "Saint-Fiacre", "amenity": null, "highway": "bus_stop" }, "geometry": { "type": "Point", "coordinates": [ 6.172024, 48.7009716 ] } },
{ "type": "Feature", "properties": { "element": "node", "id": 658410424, "name": "Crépin", "amenity": null, "highway": "bus_stop" }, "geometry": { "type": "Point", "coordinates": [ 6.1862506, 48.677714 ] } },
{ "type": "Feature", "properties": { "element": "node", "id": 660760153, "name": "Commanderie", "amenity": null, "highway": "bus_stop" }, "geometry": { "type": "Point", "coordinates": [ 6.1667346, 48.6854617 ] } },
{ "type": "Feature", "properties": { "element": "node", "id": 660881021, "name": "Kléber", "amenity": null, "highway": "bus_stop" }, "geometry": { "type": "Point", "coordinates": [ 6.1680635, 48.6846664 ] } },
{ "type": "Feature", "properties": { "element": "node", "id": 724227164, "name": "Division de Fer", "amenity": null, "highway": "bus_stop" }, "geometry": { "type": "Point", "coordinates": [ 6.1902396, 48.6925989 ] } },
{ "type": "Feature", "properties": { "element": "node", "id": 1225760059, "name": "Jardiniers", "amenity": null, "highway": "bus_stop" }, "geometry": { "type": "Point", "coordinates": [ 6.1918379, 48.6884602 ] } },
{ "type": "Feature", "properties": { "element": "node", "id": 1449576495, "name": "Nancy Thermal", "amenity": "bicycle_rental", "highway": null }, "geometry": { "type": "Point", "coordinates": [ 6.1671514, 48.6795944 ] } },
{ "type": "Feature", "properties": { "element": "node", "id": 1449581251, "name": "Marché d'Haussonville", "amenity": "bicycle_rental", "highway": null }, "geometry": { "type": "Point", "coordinates": [ 6.1656732, 48.672246 ] } },
{ "type": "Feature", "properties": { "element": "node", "id": 1449581254, "name": "Les Deux Rives", "amenity": "bicycle_rental", "highway": null }, "geometry": { "type": "Point", "coordinates": [ 6.195203, 48.6953458 ] } },
{ "type": "Feature", "properties": { "element": "node", "id": 1449581256, "name": "Fac de Lettres", "amenity": "bicycle_rental", "highway": null }, "geometry": { "type": "Point", "coordinates": [ 6.168452, 48.6928829 ] } },
{ "type": "Feature", "properties": { "element": "node", "id": 1645293603, "name": "Vayringe", "amenity": null, "highway": "bus_stop" }, "geometry": { "type": "Point", "coordinates": [ 6.177045, 48.7065652 ] } },
{ "type": "Feature", "properties": { "element": "node", "id": 1645293604, "name": "Vayringe", "amenity": null, "highway": "bus_stop" }, "geometry": { "type": "Point", "coordinates": [ 6.1767393, 48.7063756 ] } },
{ "type": "Feature", "properties": { "element": "node", "id": 1645296833, "name": "Pierson", "amenity": null, "highway": "bus_stop" }, "geometry": { "type": "Point", "coordinates": [ 6.17524, 48.7030644 ] } },
{ "type": "Feature", "properties": { "element": "node", "id": 1645320238, "name": "Charles V", "amenity": null, "highway": "bus_stop" }, "geometry": { "type": "Point", "coordinates": [ 6.1753546, 48.6986318 ] } },
{ "type": "Feature", "properties": { "element": "node", "id": 1645320258, "name": "Simon", "amenity": null, "highway": "bus_stop" }, "geometry": { "type": "Point", "coordinates": [ 6.176474, 48.7006097 ] } },
{ "type": "Feature", "properties": { "element": "node", "id": 1645409856, "name": "Cours Léopold", "amenity": null, "highway": "bus_stop" }, "geometry": { "type": "Point", "coordinates": [ 6.1763953, 48.6959678 ] } },
{ "type": "Feature", "properties": { "element": "node", "id": 1645409862, "name": "Place Carnot", "amenity": null, "highway": "bus_stop" }, "geometry": { "type": "Point", "coordinates": [ 6.1776318, 48.6942572 ] } },
{ "type": "Feature", "properties": { "element": "node", "id": 1645474608, "name": "Amerval", "amenity": null, "highway": "bus_stop" }, "geometry": { "type": "Point", "coordinates": [ 6.1804078, 48.6935622 ] } },
{ "type": "Feature", "properties": { "element": "node", "id": 1645487678, "name": "Mulhouse", "amenity": null, "highway": "bus_stop" }, "geometry": { "type": "Point", "coordinates": [ 6.1782785, 48.6844157 ] } },
{ "type": "Feature", "properties": { "element": "node", "id": 1645514883, "name": "Parc Sainte-Marie", "amenity": null, "highway": "bus_stop" }, "geometry": { "type": "Point", "coordinates": [ 6.1691805, 48.6827698 ] } },
{ "type": "Feature", "properties": { "element": "node", "id": 1645544451, "name": "Avenue de Brabois", "amenity": null, "highway": "bus_stop" }, "geometry": { "type": "Point", "coordinates": [ 6.1636464, 48.6727711 ] } },
{ "type": "Feature", "properties": { "element": "node", "id": 1645544452, "name": "Avenue de Brabois", "amenity": null, "highway": "bus_stop" }, "geometry": { "type": "Point", "coordinates": [ 6.1639249, 48.6728746 ] } },
{ "type": "Feature", "properties": { "element": "node", "id": 1650263097, "name": "Parc Sainte-Marie", "amenity": null, "highway": "bus_stop" }, "geometry": { "type": "Point", "coordinates": [ 6.1697812, 48.6837515 ] } },
{ "type": "Feature", "properties": { "element": "node", "id": 1650263104, "name": "Mulhouse", "amenity": null, "highway": "bus_stop" }, "geometry": { "type": "Point", "coordinates": [ 6.1792817, 48.6850424 ] } },
{ "type": "Feature", "properties": { "element": "node", "id": 1650287364, "name": "Cours Léopold", "amenity": null, "highway": "bus_stop" }, "geometry": { "type": "Point", "coordinates": [ 6.1745851, 48.6962769 ] } },
{ "type": "Feature", "properties": { "element": "node", "id": 1650287377, "name": "Place Carnot", "amenity": null, "highway": "bus_stop" }, "geometry": { "type": "Point", "coordinates": [ 6.1769698, 48.692926 ] } },
{ "type": "Feature", "properties": { "element": "node", "id": 1650293300, "name": "Dusaulx", "amenity": null, "highway": "bus_stop" }, "geometry": { "type": "Point", "coordinates": [ 6.1742019, 48.7048466 ] } },
{ "type": "Feature", "properties": { "element": "node", "id": 1650293304, "name": "MJC 3 Maisons", "amenity": null, "highway": "bus_stop" }, "geometry": { "type": "Point", "coordinates": [ 6.1757828, 48.7058548 ] } },
{ "type": "Feature", "properties": { "element": "node", "id": 1667166119, "name": "Colline", "amenity": null, "highway": "bus_stop" }, "geometry": { "type": "Point", "coordinates": [ 6.1428511, 48.6961778 ] } },
{ "type": "Feature", "properties": { "element": "node", "id": 1675847704, "name": "Patton", "amenity": null, "highway": "bus_stop" }, "geometry": { "type": "Point", "coordinates": [ 6.171191, 48.6907465 ] } },
{ "type": "Feature", "properties": { "element": "node", "id": 1676686338, "name": "Place Godefroy de Bouillon", "amenity": null, "highway": "bus_stop" }, "geometry": { "type": "Point", "coordinates": [ 6.1683282, 48.6919002 ] } },
{ "type": "Feature", "properties": { "element": "node", "id": 1676686351, "name": "Tilleul Argenté", "amenity": null, "highway": "bus_stop" }, "geometry": { "type": "Point", "coordinates": [ 6.1552554, 48.7032368 ] } },
{ "type": "Feature", "properties": { "element": "node", "id": 1676686365, "name": "Campus Lettres", "amenity": null, "highway": "bus_stop" }, "geometry": { "type": "Point", "coordinates": [ 6.1674427, 48.6955133 ] } },
{ "type": "Feature", "properties": { "element": "node", "id": 1681252498, "name": "Cèdre Bleu", "amenity": null, "highway": "bus_stop" }, "geometry": { "type": "Point", "coordinates": [ 6.1508624, 48.7019543 ] } },
{ "type": "Feature", "properties": { "element": "node", "id": 1681252509, "name": "Les Ombelles", "amenity": null, "highway": "bus_stop" }, "geometry": { "type": "Point", "coordinates": [ 6.1473575, 48.7009811 ] } },
{ "type": "Feature", "properties": { "element": "node", "id": 1681252521, "name": "Palais des Sports - Gentilly", "amenity": null, "highway": "bus_stop" }, "geometry": { "type": "Point", "coordinates": [ 6.1384599, 48.6995696 ] } },
{ "type": "Feature", "properties": { "element": "node", "id": 1681252523, "name": "Palais des Sports - Gentilly", "amenity": null, "highway": "bus_stop" }, "geometry": { "type": "Point", "coordinates": [ 6.1405571, 48.6998045 ] } },
{ "type": "Feature", "properties": { "element": "node", "id": 1681252530, "name": "Cliniques", "amenity": null, "highway": "bus_stop" }, "geometry": { "type": "Point", "coordinates": [ 6.1433464, 48.7000735 ] } },
{ "type": "Feature", "properties": { "element": "node", "id": 1681252535, "name": "Cliniques", "amenity": null, "highway": "bus_stop" }, "geometry": { "type": "Point", "coordinates": [ 6.1440813, 48.7002306 ] } },
{ "type": "Feature", "properties": { "element": "node", "id": 1681366964, "name": "Donrémy", "amenity": null, "highway": "bus_stop" }, "geometry": { "type": "Point", "coordinates": [ 6.1703106, 48.6883778 ] } },
{ "type": "Feature", "properties": { "element": "node", "id": 1721571103, "name": "Chemin Blanc", "amenity": null, "highway": "bus_stop" }, "geometry": { "type": "Point", "coordinates": [ 6.1557164, 48.6904733 ] } },
{ "type": "Feature", "properties": { "element": "node", "id": 1721571107, "name": "La Côte", "amenity": null, "highway": "bus_stop" }, "geometry": { "type": "Point", "coordinates": [ 6.1496442, 48.6917471 ] } },
{ "type": "Feature", "properties": { "element": "node", "id": 1721571108, "name": "La Côte", "amenity": null, "highway": "bus_stop" }, "geometry": { "type": "Point", "coordinates": [ 6.1490987, 48.6918594 ] } },
{ "type": "Feature", "properties": { "element": "node", "id": 1721571110, "name": "Marquette", "amenity": null, "highway": "bus_stop" }, "geometry": { "type": "Point", "coordinates": [ 6.1526504, 48.6911234 ] } },
{ "type": "Feature", "properties": { "element": "node", "id": 1721571111, "name": "Préville", "amenity": null, "highway": "bus_stop" }, "geometry": { "type": "Point", "coordinates": [ 6.1654159, 48.6880808 ] } },
{ "type": "Feature", "properties": { "element": "node", "id": 1721571112, "name": "Préville", "amenity": null, "highway": "bus_stop" }, "geometry": { "type": "Point", "coordinates": [ 6.1665063, 48.688419 ] } },
{ "type": "Feature", "properties": { "element": "node", "id": 1721571113, "name": "Beauregard Sainte-Anne", "amenity": null, "highway": "bus_stop" }, "geometry": { "type": "Point", "coordinates": [ 6.1403026, 48.6932394 ] } },
{ "type": "Feature", "properties": { "element": "node", "id": 1721571114, "name": "Beauregard Sainte-Anne", "amenity": null, "highway": "bus_stop" }, "geometry": { "type": "Point", "coordinates": [ 6.1400392, 48.693267 ] } },
{ "type": "Feature", "properties": { "element": "node", "id": 1721571115, "name": "Messier", "amenity": null, "highway": "bus_stop" }, "geometry": { "type": "Point", "coordinates": [ 6.16014, 48.6895285 ] } },
{ "type": "Feature", "properties": { "element": "node", "id": 1721571116, "name": "Messier", "amenity": null, "highway": "bus_stop" }, "geometry": { "type": "Point", "coordinates": [ 6.1595782, 48.6896482 ] } },
{ "type": "Feature", "properties": { "element": "node", "id": 1721571117, "name": "Viray", "amenity": null, "highway": "bus_stop" }, "geometry": { "type": "Point", "coordinates": [ 6.1458997, 48.6925409 ] } },
{ "type": "Feature", "properties": { "element": "node", "id": 1721769056, "name": "Oudinot", "amenity": null, "highway": "bus_stop" }, "geometry": { "type": "Point", "coordinates": [ 6.1786717, 48.6763058 ] } },
{ "type": "Feature", "properties": { "element": "node", "id": 1721769059, "name": "Vaucouleurs", "amenity": null, "highway": "bus_stop" }, "geometry": { "type": "Point", "coordinates": [ 6.1813457, 48.6744184 ] } },
{ "type": "Feature", "properties": { "element": "node", "id": 1722624045, "name": "Oudinot", "amenity": null, "highway": "bus_stop" }, "geometry": { "type": "Point", "coordinates": [ 6.1817946, 48.6760798 ] } },
{ "type": "Feature", "properties": { "element": "node", "id": 1722624121, "name": "Pichon", "amenity": null, "highway": "bus_stop" }, "geometry": { "type": "Point", "coordinates": [ 6.1865198, 48.6845233 ] } },
{ "type": "Feature", "properties": { "element": "node", "id": 1722641000, "name": "Bibliothèque", "amenity": null, "highway": "bus_stop" }, "geometry": { "type": "Point", "coordinates": [ 6.1786835, 48.692139 ] } },
{ "type": "Feature", "properties": { "element": "node", "id": 1722812381, "name": "Canal", "amenity": null, "highway": "bus_stop" }, "geometry": { "type": "Point", "coordinates": [ 6.1826529, 48.7029249 ] } },
{ "type": "Feature", "properties": { "element": "node", "id": 1722812391, "name": "Canal", "amenity": null, "highway": "bus_stop" }, "geometry": { "type": "Point", "coordinates": [ 6.1821891, 48.703158 ] } },
{ "type": "Feature", "properties": { "element": "node", "id": 1730342942, "name": "Majorelle", "amenity": null, "highway": "bus_stop" }, "geometry": { "type": "Point", "coordinates": [ 6.1443653, 48.701261 ] } },
{ "type": "Feature", "properties": { "element": "node", "id": 1730342943, "name": "Majorelle", "amenity": null, "highway": "bus_stop" }, "geometry": { "type": "Point", "coordinates": [ 6.1439865, 48.7015746 ] } },
{ "type": "Feature", "properties": { "element": "node", "id": 1732884978, "name": "Colline", "amenity": null, "highway": "bus_stop" }, "geometry": { "type": "Point", "coordinates": [ 6.1408505, 48.6957098 ] } },
{ "type": "Feature", "properties": { "element": "node", "id": 1732884984, "name": "Georges de la Tour", "amenity": null, "highway": "bus_stop" }, "geometry": { "type": "Point", "coordinates": [ 6.1384752, 48.6912634 ] } },
{ "type": "Feature", "properties": { "element": "node", "id": 1732905854, "name": "Buthégnémont", "amenity": null, "highway": "bus_stop" }, "geometry": { "type": "Point", "coordinates": [ 6.1462196, 48.6965105 ] } },
{ "type": "Feature", "properties": { "element": "node", "id": 1732954596, "name": "Cavallier", "amenity": null, "highway": "bus_stop" }, "geometry": { "type": "Point", "coordinates": [ 6.1654462, 48.6932419 ] } },
{ "type": "Feature", "properties": { "element": "node", "id": 1732954601, "name": "Cavallier", "amenity": null, "highway": "bus_stop" }, "geometry": { "type": "Point", "coordinates": [ 6.1651312, 48.6943218 ] } },
{ "type": "Feature", "properties": { "element": "node", "id": 1732954627, "name": "Place Godefroy de Bouillon", "amenity": null, "highway": "bus_stop" }, "geometry": { "type": "Point", "coordinates": [ 6.1663854, 48.6927533 ] } },
{ "type": "Feature", "properties": { "element": "node", "id": 1732954632, "name": "La Foucotte", "amenity": null, "highway": "bus_stop" }, "geometry": { "type": "Point", "coordinates": [ 6.15917, 48.69693 ] } },
{ "type": "Feature", "properties": { "element": "node", "id": 1732954634, "name": "Saint-Mansuy", "amenity": null, "highway": "bus_stop" }, "geometry": { "type": "Point", "coordinates": [ 6.1551099, 48.6973702 ] } },
{ "type": "Feature", "properties": { "element": "node", "id": 1732977279, "name": "Boufflers", "amenity": null, "highway": "bus_stop" }, "geometry": { "type": "Point", "coordinates": [ 6.1381804, 48.6930369 ] } },
{ "type": "Feature", "properties": { "element": "node", "id": 1753728815, "name": "Alsace-Bonsecours", "amenity": null, "highway": "bus_stop" }, "geometry": { "type": "Point", "coordinates": [ 6.1997979, 48.6761509 ] } },
{ "type": "Feature", "properties": { "element": "node", "id": 1753743331, "name": "Achille Levy", "amenity": null, "highway": "bus_stop" }, "geometry": { "type": "Point", "coordinates": [ 6.1987076, 48.6776534 ] } },
{ "type": "Feature", "properties": { "element": "node", "id": 1753894246, "name": "Hôpital Central - Maternité", "amenity": null, "highway": "bus_stop" }, "geometry": { "type": "Point", "coordinates": [ 6.1922371, 48.6820258 ] } },
{ "type": "Feature", "properties": { "element": "node", "id": 1753894314, "name": "Hôpital Central - Maternité", "amenity": null, "highway": "bus_stop" }, "geometry": { "type": "Point", "coordinates": [ 6.1919728, 48.6822851 ] } },
{ "type": "Feature", "properties": { "element": "node", "id": 1760670929, "name": "Place des Vosges", "amenity": null, "highway": "bus_stop" }, "geometry": { "type": "Point", "coordinates": [ 6.1876583, 48.6847674 ] } },
{ "type": "Feature", "properties": { "element": "node", "id": 1811742010, "name": "Stade Matter", "amenity": null, "highway": "bus_stop" }, "geometry": { "type": "Point", "coordinates": [ 6.2025046, 48.6895746 ] } },
{ "type": "Feature", "properties": { "element": "node", "id": 1844248403, "name": "Esplanade", "amenity": null, "highway": "bus_stop" }, "geometry": { "type": "Point", "coordinates": [ 6.1997746, 48.6882078 ] } },
{ "type": "Feature", "properties": { "element": "node", "id": 1844312793, "name": "Loritz", "amenity": null, "highway": "bus_stop" }, "geometry": { "type": "Point", "coordinates": [ 6.1954834, 48.6871119 ] } },
{ "type": "Feature", "properties": { "element": "node", "id": 2000614079, "name": "Gentilly", "amenity": null, "highway": "bus_stop" }, "geometry": { "type": "Point", "coordinates": [ 6.1384827, 48.6948833 ] } },
{ "type": "Feature", "properties": { "element": "node", "id": 2020455096, "name": "Gridel", "amenity": null, "highway": "bus_stop" }, "geometry": { "type": "Point", "coordinates": [ 6.1607534, 48.6866576 ] } },
{ "type": "Feature", "properties": { "element": "node", "id": 2020455102, "name": "Médreville", "amenity": null, "highway": "bus_stop" }, "geometry": { "type": "Point", "coordinates": [ 6.1602855, 48.6853204 ] } },
{ "type": "Feature", "properties": { "element": "node", "id": 2020455110, "name": "Sacré-Cœur", "amenity": null, "highway": "bus_stop" }, "geometry": { "type": "Point", "coordinates": [ 6.1628537, 48.6862552 ] } },
{ "type": "Feature", "properties": { "element": "node", "id": 2073904426, "name": "Gare - Saint Léon", "amenity": null, "highway": "bus_stop" }, "geometry": { "type": "Point", "coordinates": [ 6.1739894, 48.6875505 ] } },
{ "type": "Feature", "properties": { "element": "node", "id": 2073915523, "name": "ARTEM - Blandan - Thermal", "amenity": null, "highway": "bus_stop" }, "geometry": { "type": "Point", "coordinates": [ 6.1724572, 48.6719652 ] } },
{ "type": "Feature", "properties": { "element": "node", "id": 2080524556, "name": "Villemin", "amenity": null, "highway": "bus_stop" }, "geometry": { "type": "Point", "coordinates": [ 6.1887592, 48.678841 ] } },
{ "type": "Feature", "properties": { "element": "node", "id": 2091698377, "name": "21e R.A.", "amenity": null, "highway": "bus_stop" }, "geometry": { "type": "Point", "coordinates": [ 6.1923296, 48.6931504 ] } },
{ "type": "Feature", "properties": { "element": "node", "id": 2095353735, "name": "Artem", "amenity": null, "highway": "bus_stop" }, "geometry": { "type": "Point", "coordinates": [ 6.1721877, 48.6725235 ] } },
{ "type": "Feature", "properties": { "element": "node", "id": 2107522590, "name": "Clinchant", "amenity": null, "highway": "bus_stop" }, "geometry": { "type": "Point", "coordinates": [ 6.1846376, 48.6801329 ] } },
{ "type": "Feature", "properties": { "element": "node", "id": 2107522596, "name": "Quai de la Bataille", "amenity": null, "highway": "bus_stop" }, "geometry": { "type": "Point", "coordinates": [ 6.1854439, 48.6819687 ] } },
{ "type": "Feature", "properties": { "element": "node", "id": 2107522602, "name": "Villard", "amenity": null, "highway": "bus_stop" }, "geometry": { "type": "Point", "coordinates": [ 6.1878854, 48.6801891 ] } },
{ "type": "Feature", "properties": { "element": "node", "id": 2143321812, "name": "Place Stanislas - Dom Calmet", "amenity": null, "highway": "bus_stop" }, "geometry": { "type": "Point", "coordinates": [ 6.1810009, 48.6908953 ] } },
{ "type": "Feature", "properties": { "element": "node", "id": 2171047763, "name": "Loritz", "amenity": null, "highway": "bus_stop" }, "geometry": { "type": "Point", "coordinates": [ 6.1968917, 48.6858752 ] } },
{ "type": "Feature", "properties": { "element": "node", "id": 2171856278, "name": "Bazin", "amenity": null, "highway": "bus_stop" }, "geometry": { "type": "Point", "coordinates": [ 6.1928362, 48.6967359 ] } },
{ "type": "Feature", "properties": { "element": "node", "id": 2171856280, "name": "Deux Rives - Olympe de Gouges", "amenity": null, "highway": "bus_stop" }, "geometry": { "type": "Point", "coordinates": [ 6.1936481, 48.6955323 ] } },
{ "type": "Feature", "properties": { "element": "node", "id": 2171856282, "name": "Sainte-Catherine", "amenity": null, "highway": "bus_stop" }, "geometry": { "type": "Point", "coordinates": [ 6.1899408, 48.6949572 ] } },
{ "type": "Feature", "properties": { "element": "node", "id": 2193384113, "name": "Commanderie", "amenity": null, "highway": "bus_stop" }, "geometry": { "type": "Point", "coordinates": [ 6.1678729, 48.6865666 ] } },
{ "type": "Feature", "properties": { "element": "node", "id": 2193384115, "name": "Gare – Saint-Léon", "amenity": null, "highway": "bus_stop" }, "geometry": { "type": "Point", "coordinates": [ 6.1730352, 48.6883281 ] } },
{ "type": "Feature", "properties": { "element": "node", "id": 2393674253, "name": "Centre Européen Universitaire", "amenity": "university", "highway": null }, "geometry": { "type": "Point", "coordinates": [ 6.1762326, 48.6936842 ] } },
{ "type": "Feature", "properties": { "element": "node", "id": 2393674254, "name": "Institut de Préparation à l'Administration Générale", "amenity": "university", "highway": null }, "geometry": { "type": "Point", "coordinates": [ 6.1754461, 48.6934791 ] } },
{ "type": "Feature", "properties": { "element": "node", "id": 2440786189, "name": "Ligier - Richier", "amenity": null, "highway": "bus_stop" }, "geometry": { "type": "Point", "coordinates": [ 6.1675134, 48.703193 ] } },
{ "type": "Feature", "properties": { "element": "node", "id": 2455792242, "name": "Gabriel Mouilleron", "amenity": null, "highway": "bus_stop" }, "geometry": { "type": "Point", "coordinates": [ 6.1727381, 48.683315 ] } },
{ "type": "Feature", "properties": { "element": "node", "id": 2459484105, "name": "Painlevé", "amenity": null, "highway": "bus_stop" }, "geometry": { "type": "Point", "coordinates": [ 6.1644963, 48.6820229 ] } },
{ "type": "Feature", "properties": { "element": "node", "id": 2460982676, "name": "Quartier Saint-Nicolas", "amenity": null, "highway": "bus_stop" }, "geometry": { "type": "Point", "coordinates": [ 6.1844972, 48.6861097 ] } },
{ "type": "Feature", "properties": { "element": "node", "id": 2463261721, "name": "Gare – Poirel", "amenity": null, "highway": "bus_stop" }, "geometry": { "type": "Point", "coordinates": [ 6.1756633, 48.6903584 ] } },
{ "type": "Feature", "properties": { "element": "node", "id": 2464112178, "name": "Carsat", "amenity": null, "highway": "bus_stop" }, "geometry": { "type": "Point", "coordinates": [ 6.1705039, 48.7031037 ] } },
{ "type": "Feature", "properties": { "element": "node", "id": 2464112179, "name": "Saint-Fiacre", "amenity": null, "highway": "bus_stop" }, "geometry": { "type": "Point", "coordinates": [ 6.1719385, 48.7010922 ] } },
{ "type": "Feature", "properties": { "element": "node", "id": 2464386209, "name": "Place Stanislas - Dom Calmet", "amenity": null, "highway": "bus_stop" }, "geometry": { "type": "Point", "coordinates": [ 6.1815667, 48.6920071 ] } },
{ "type": "Feature", "properties": { "element": "node", "id": 2469170427, "name": "Achille Lévy", "amenity": null, "highway": "bus_stop" }, "geometry": { "type": "Point", "coordinates": [ 6.1979379, 48.678278 ] } },
{ "type": "Feature", "properties": { "element": "node", "id": 2469170439, "name": "Vic", "amenity": null, "highway": "bus_stop" }, "geometry": { "type": "Point", "coordinates": [ 6.1947781, 48.6804463 ] } },
{ "type": "Feature", "properties": { "element": "node", "id": 2469170448, "name": "Vic", "amenity": null, "highway": "bus_stop" }, "geometry": { "type": "Point", "coordinates": [ 6.1947207, 48.6805738 ] } },
{ "type": "Feature", "properties": { "element": "node", "id": 2470472670, "name": "Rives de Meurthe", "amenity": null, "highway": "bus_stop" }, "geometry": { "type": "Point", "coordinates": [ 6.1999691, 48.6901791 ] } },
{ "type": "Feature", "properties": { "element": "node", "id": 2470472671, "name": "Cinéma", "amenity": null, "highway": "bus_stop" }, "geometry": { "type": "Point", "coordinates": [ 6.1970998, 48.6925312 ] } },
{ "type": "Feature", "properties": { "element": "node", "id": 2470472673, "name": "Esplanade", "amenity": null, "highway": "bus_stop" }, "geometry": { "type": "Point", "coordinates": [ 6.2000601, 48.6881829 ] } },
{ "type": "Feature", "properties": { "element": "node", "id": 2470583810, "name": "Bazin", "amenity": null, "highway": "bus_stop" }, "geometry": { "type": "Point", "coordinates": [ 6.1927573, 48.6972305 ] } },
{ "type": "Feature", "properties": { "element": "node", "id": 2470583812, "name": "Cristalleries - Stade Marcel Picot", "amenity": null, "highway": "bus_stop" }, "geometry": { "type": "Point", "coordinates": [ 6.1967594, 48.6975606 ] } },
{ "type": "Feature", "properties": { "element": "node", "id": 2472512580, "name": "Austrasie", "amenity": null, "highway": "bus_stop" }, "geometry": { "type": "Point", "coordinates": [ 6.2043568, 48.6873982 ] } },
{ "type": "Feature", "properties": { "element": "node", "id": 2472512584, "name": "Stade Matter", "amenity": null, "highway": "bus_stop" }, "geometry": { "type": "Point", "coordinates": [ 6.2023244, 48.6896543 ] } },
{ "type": "Feature", "properties": { "element": "node", "id": 2472512585, "name": "Victor", "amenity": null, "highway": "bus_stop" }, "geometry": { "type": "Point", "coordinates": [ 6.1996655, 48.6864453 ] } },
{ "type": "Feature", "properties": { "element": "node", "id": 2472512586, "name": "Victor", "amenity": null, "highway": "bus_stop" }, "geometry": { "type": "Point", "coordinates": [ 6.2007175, 48.6866583 ] } },
{ "type": "Feature", "properties": { "element": "node", "id": 2488849546, "name": "Krug", "amenity": null, "highway": "bus_stop" }, "geometry": { "type": "Point", "coordinates": [ 6.2030293, 48.6828403 ] } },
{ "type": "Feature", "properties": { "element": "node", "id": 2488849547, "name": "Marcel Brot", "amenity": null, "highway": "bus_stop" }, "geometry": { "type": "Point", "coordinates": [ 6.2048312, 48.6792323 ] } },
{ "type": "Feature", "properties": { "element": "node", "id": 2505301799, "name": "Parc de la Pépinière", "amenity": null, "highway": "bus_stop" }, "geometry": { "type": "Point", "coordinates": [ 6.1842586, 48.7001962 ] } },
{ "type": "Feature", "properties": { "element": "node", "id": 2525688697, "name": "Cèdre Bleu", "amenity": null, "highway": "bus_stop" }, "geometry": { "type": "Point", "coordinates": [ 6.1521565, 48.702332 ] } },
{ "type": "Feature", "properties": { "element": "node", "id": 2525688700, "name": "Tilleul Argenté", "amenity": null, "highway": "bus_stop" }, "geometry": { "type": "Point", "coordinates": [ 6.155167, 48.7035639 ] } },
{ "type": "Feature", "properties": { "element": "node", "id": 2526286485, "name": "Alix Le Clerc", "amenity": null, "highway": "bus_stop" }, "geometry": { "type": "Point", "coordinates": [ 6.1639534, 48.7020056 ] } },
{ "type": "Feature", "properties": { "element": "node", "id": 2526286486, "name": "Collège Jean Lamour", "amenity": null, "highway": "bus_stop" }, "geometry": { "type": "Point", "coordinates": [ 6.1632695, 48.7036803 ] } },
{ "type": "Feature", "properties": { "element": "node", "id": 2526286487, "name": "Collège Jean Lamour", "amenity": null, "highway": "bus_stop" }, "geometry": { "type": "Point", "coordinates": [ 6.162715, 48.7050082 ] } },
{ "type": "Feature", "properties": { "element": "node", "id": 2526286489, "name": "Place Aimé Morot", "amenity": null, "highway": "bus_stop" }, "geometry": { "type": "Point", "coordinates": [ 6.1657784, 48.6993043 ] } },
{ "type": "Feature", "properties": { "element": "node", "id": 2528196053, "name": "Chemin Blanc", "amenity": null, "highway": "bus_stop" }, "geometry": { "type": "Point", "coordinates": [ 6.1560759, 48.6903962 ] } },
{ "type": "Feature", "properties": { "element": "node", "id": 2528196054, "name": "Santifontaine", "amenity": null, "highway": "bus_stop" }, "geometry": { "type": "Point", "coordinates": [ 6.1633703, 48.6888422 ] } },
{ "type": "Feature", "properties": { "element": "node", "id": 2528196055, "name": "Santifontaine", "amenity": null, "highway": "bus_stop" }, "geometry": { "type": "Point", "coordinates": [ 6.162587, 48.6890081 ] } },
{ "type": "Feature", "properties": { "element": "node", "id": 2528196056, "name": "Viray", "amenity": null, "highway": "bus_stop" }, "geometry": { "type": "Point", "coordinates": [ 6.146087, 48.6925023 ] } },
{ "type": "Feature", "properties": { "element": "node", "id": 2541919715, "name": "Colline", "amenity": null, "highway": "bus_stop" }, "geometry": { "type": "Point", "coordinates": [ 6.143117, 48.6963921 ] } },
{ "type": "Feature", "properties": { "element": "node", "id": 2542012033, "name": "Georges de la Tour", "amenity": null, "highway": "bus_stop" }, "geometry": { "type": "Point", "coordinates": [ 6.1384556, 48.6913729 ] } },
{ "type": "Feature", "properties": { "element": "node", "id": 2544124666, "name": "Centre Pénitentiaire", "amenity": null, "highway": "bus_stop" }, "geometry": { "type": "Point", "coordinates": [ 6.1517846, 48.7054815 ] } },
{ "type": "Feature", "properties": { "element": "node", "id": 2544124667, "name": "Centre Pénitentiaire", "amenity": null, "highway": "bus_stop" }, "geometry": { "type": "Point", "coordinates": [ 6.1529102, 48.7058121 ] } },
{ "type": "Feature", "properties": { "element": "node", "id": 2544124668, "name": "Les Aulnes", "amenity": null, "highway": "bus_stop" }, "geometry": { "type": "Point", "coordinates": [ 6.1559712, 48.7055391 ] } },
{ "type": "Feature", "properties": { "element": "node", "id": 2544124669, "name": "Les Aulnes", "amenity": null, "highway": "bus_stop" }, "geometry": { "type": "Point", "coordinates": [ 6.1557433, 48.7057174 ] } },
{ "type": "Feature", "properties": { "element": "node", "id": 2544124670, "name": "Stade Darnys", "amenity": null, "highway": "bus_stop" }, "geometry": { "type": "Point", "coordinates": [ 6.1489612, 48.7062009 ] } },
{ "type": "Feature", "properties": { "element": "node", "id": 2568833853, "name": "Charles de Foucauld", "amenity": null, "highway": "bus_stop" }, "geometry": { "type": "Point", "coordinates": [ 6.179808, 48.702098 ] } },
{ "type": "Feature", "properties": { "element": "node", "id": 2568833854, "name": "Charles de Foucauld", "amenity": null, "highway": "bus_stop" }, "geometry": { "type": "Point", "coordinates": [ 6.1816243, 48.7024749 ] } },
{ "type": "Feature", "properties": { "element": "node", "id": 2568833858, "name": "Mac Mahon", "amenity": null, "highway": "bus_stop" }, "geometry": { "type": "Point", "coordinates": [ 6.1828119, 48.7041257 ] } },
{ "type": "Feature", "properties": { "element": "node", "id": 2568833859, "name": "Mac Mahon", "amenity": null, "highway": "bus_stop" }, "geometry": { "type": "Point", "coordinates": [ 6.1830106, 48.7043291 ] } },
{ "type": "Feature", "properties": { "element": "node", "id": 2615646281, "name": "Bertin", "amenity": null, "highway": "bus_stop" }, "geometry": { "type": "Point", "coordinates": [ 6.1626712, 48.6801994 ] } },
{ "type": "Feature", "properties": { "element": "node", "id": 2615683915, "name": "Citadelle", "amenity": null, "highway": "bus_stop" }, "geometry": { "type": "Point", "coordinates": [ 6.176655, 48.700244 ] } },
{ "type": "Feature", "properties": { "element": "node", "id": 2615683916, "name": "Citadelle", "amenity": null, "highway": "bus_stop" }, "geometry": { "type": "Point", "coordinates": [ 6.1787124, 48.700425 ] } },
{ "type": "Feature", "properties": { "element": "node", "id": 2623522081, "name": "Musée Lorrain", "amenity": null, "highway": "bus_stop" }, "geometry": { "type": "Point", "coordinates": [ 6.1794194, 48.6969954 ] } },
{ "type": "Feature", "properties": { "element": "node", "id": 2628770153, "name": "Dieuze", "amenity": null, "highway": "bus_stop" }, "geometry": { "type": "Point", "coordinates": [ 6.1921715, 48.6986336 ] } },
{ "type": "Feature", "properties": { "element": "node", "id": 2628770163, "name": "Oberlin", "amenity": null, "highway": "bus_stop" }, "geometry": { "type": "Point", "coordinates": [ 6.1895783, 48.6995801 ] } },
{ "type": "Feature", "properties": { "element": "node", "id": 2640109859, "name": "Saint-Epvre", "amenity": null, "highway": "bus_stop" }, "geometry": { "type": "Point", "coordinates": [ 6.1797071, 48.6950401 ] } },
{ "type": "Feature", "properties": { "element": "node", "id": 2640109860, "name": "Saint-Epvre", "amenity": null, "highway": "bus_stop" }, "geometry": { "type": "Point", "coordinates": [ 6.1795901, 48.6955155 ] } },
{ "type": "Feature", "properties": { "element": "node", "id": 2656587622, "name": "Gare - Pierre Semard", "amenity": null, "highway": "bus_stop" }, "geometry": { "type": "Point", "coordinates": [ 6.1773302, 48.6897185 ] } },
{ "type": "Feature", "properties": { "element": "node", "id": 2656606776, "name": "Hacquard", "amenity": null, "highway": "bus_stop" }, "geometry": { "type": "Point", "coordinates": [ 6.1581962, 48.699667 ] } },
{ "type": "Feature", "properties": { "element": "node", "id": 2659787768, "name": "Molitor", "amenity": null, "highway": "bus_stop" }, "geometry": { "type": "Point", "coordinates": [ 6.1956108, 48.686089 ] } },
{ "type": "Feature", "properties": { "element": "node", "id": 2725502540, "name": "Foyer de l’Assomption", "amenity": "student_accommodation", "highway": null }, "geometry": { "type": "Point", "coordinates": [ 6.1710421, 48.6897319 ] } },
{ "type": "Feature", "properties": { "element": "node", "id": 2772127508, "name": "Porte de la Craffe", "amenity": null, "highway": "bus_stop" }, "geometry": { "type": "Point", "coordinates": [ 6.1776006, 48.6985587 ] } },
{ "type": "Feature", "properties": { "element": "node", "id": 2788671522, "name": "Amerval", "amenity": null, "highway": "bus_stop" }, "geometry": { "type": "Point", "coordinates": [ 6.1807957, 48.6930312 ] } },
{ "type": "Feature", "properties": { "element": "node", "id": 3068773615, "name": "Saint Georges", "amenity": null, "highway": "bus_stop" }, "geometry": { "type": "Point", "coordinates": [ 6.1940632, 48.6968147 ] } },
{ "type": "Feature", "properties": { "element": "node", "id": 3140500814, "name": "Austrasie", "amenity": null, "highway": "bus_stop" }, "geometry": { "type": "Point", "coordinates": [ 6.2042364, 48.6873739 ] } },
{ "type": "Feature", "properties": { "element": "node", "id": 3145323556, "name": "Rond-Point des Familles", "amenity": null, "highway": "bus_stop" }, "geometry": { "type": "Point", "coordinates": [ 6.1640194, 48.6688349 ] } },
{ "type": "Feature", "properties": { "element": "node", "id": 3423895872, "name": "Chanoine Jacob", "amenity": null, "highway": "bus_stop" }, "geometry": { "type": "Point", "coordinates": [ 6.1697957, 48.6994627 ] } },
{ "type": "Feature", "properties": { "element": "node", "id": 3639914396, "name": "Chemin", "amenity": null, "highway": "bus_stop" }, "geometry": { "type": "Point", "coordinates": [ 6.1509691, 48.6977108 ] } },
{ "type": "Feature", "properties": { "element": "node", "id": 3639914397, "name": "Croix Gagnée", "amenity": null, "highway": "bus_stop" }, "geometry": { "type": "Point", "coordinates": [ 6.1600737, 48.69871 ] } },
{ "type": "Feature", "properties": { "element": "node", "id": 3639914398, "name": "La Renaudine", "amenity": null, "highway": "bus_stop" }, "geometry": { "type": "Point", "coordinates": [ 6.1495283, 48.6976512 ] } },
{ "type": "Feature", "properties": { "element": "node", "id": 3639914407, "name": "Robert Sittler", "amenity": null, "highway": "bus_stop" }, "geometry": { "type": "Point", "coordinates": [ 6.1565894, 48.6986563 ] } },
{ "type": "Feature", "properties": { "element": "node", "id": 3639914408, "name": "Saint-Bodon", "amenity": null, "highway": "bus_stop" }, "geometry": { "type": "Point", "coordinates": [ 6.1639108, 48.6993259 ] } },
{ "type": "Feature", "properties": { "element": "node", "id": 3639914409, "name": "Sentier", "amenity": null, "highway": "bus_stop" }, "geometry": { "type": "Point", "coordinates": [ 6.1458566, 48.6968248 ] } },
{ "type": "Feature", "properties": { "element": "node", "id": 3639914410, "name": "Sifflets", "amenity": null, "highway": "bus_stop" }, "geometry": { "type": "Point", "coordinates": [ 6.1543603, 48.6983116 ] } },
{ "type": "Feature", "properties": { "element": "node", "id": 3639914411, "name": "Viard", "amenity": null, "highway": "bus_stop" }, "geometry": { "type": "Point", "coordinates": [ 6.1619984, 48.6987344 ] } },
{ "type": "Feature", "properties": { "element": "node", "id": 3644525611, "name": "Bourcier", "amenity": null, "highway": "bus_stop" }, "geometry": { "type": "Point", "coordinates": [ 6.145421, 48.694438 ] } },
{ "type": "Feature", "properties": { "element": "node", "id": 4392200463, "name": "IAE Nancy School of Management - Campus Manufacture", "amenity": "university", "highway": null }, "geometry": { "type": "Point", "coordinates": [ 6.1716556, 48.6974692 ] } },
{ "type": "Feature", "properties": { "element": "node", "id": 4409498640, "name": "Pichon", "amenity": null, "highway": "bus_stop" }, "geometry": { "type": "Point", "coordinates": [ 6.1853929, 48.6835231 ] } },
{ "type": "Feature", "properties": { "element": "node", "id": 4409533644, "name": "Villemin", "amenity": null, "highway": "bus_stop" }, "geometry": { "type": "Point", "coordinates": [ 6.1898942, 48.6789557 ] } },
{ "type": "Feature", "properties": { "element": "node", "id": 4510825606, "name": "Gabriel Mouilleron", "amenity": null, "highway": "bus_stop" }, "geometry": { "type": "Point", "coordinates": [ 6.1750763, 48.6849135 ] } },
{ "type": "Feature", "properties": { "element": "node", "id": 4538228272, "name": "Cité Universitaire", "amenity": null, "highway": "bus_stop" }, "geometry": { "type": "Point", "coordinates": [ 6.1624421, 48.6962638 ] } },
{ "type": "Feature", "properties": { "element": "node", "id": 4538253606, "name": "Moulin", "amenity": null, "highway": "bus_stop" }, "geometry": { "type": "Point", "coordinates": [ 6.1654154, 48.6980976 ] } },
{ "type": "Feature", "properties": { "element": "node", "id": 4538325441, "name": "Auxonne", "amenity": null, "highway": "bus_stop" }, "geometry": { "type": "Point", "coordinates": [ 6.1659402, 48.6999781 ] } },
{ "type": "Feature", "properties": { "element": "node", "id": 4560880749, "name": "Charles V", "amenity": null, "highway": "bus_stop" }, "geometry": { "type": "Point", "coordinates": [ 6.175228, 48.6984027 ] } },
{ "type": "Feature", "properties": { "element": "node", "id": 4562130372, "name": "Monbois", "amenity": null, "highway": "bus_stop" }, "geometry": { "type": "Point", "coordinates": [ 6.1592367, 48.6975603 ] } },
{ "type": "Feature", "properties": { "element": "node", "id": 4562165878, "name": "Montreville", "amenity": null, "highway": "bus_stop" }, "geometry": { "type": "Point", "coordinates": [ 6.1628803, 48.7005948 ] } },
{ "type": "Feature", "properties": { "element": "node", "id": 4693806789, "name": "Saint-Mansuy", "amenity": null, "highway": "bus_stop" }, "geometry": { "type": "Point", "coordinates": [ 6.1547113, 48.6972958 ] } },
{ "type": "Feature", "properties": { "element": "node", "id": 5339844614, "name": "Artem Vauban", "amenity": null, "highway": "bus_stop" }, "geometry": { "type": "Point", "coordinates": [ 6.1706042, 48.6746622 ] } },
{ "type": "Feature", "properties": { "element": "node", "id": 5603020244, "name": "Fontenoy", "amenity": null, "highway": "bus_stop" }, "geometry": { "type": "Point", "coordinates": [ 6.1774931, 48.7044774 ] } },
{ "type": "Feature", "properties": { "element": "node", "id": 5604951907, "name": "Bertin", "amenity": null, "highway": "bus_stop" }, "geometry": { "type": "Point", "coordinates": [ 6.161665, 48.6794624 ] } },
{ "type": "Feature", "properties": { "element": "node", "id": 5628972437, "name": "Victor", "amenity": null, "highway": "bus_stop" }, "geometry": { "type": "Point", "coordinates": [ 6.2013566, 48.6862434 ] } },
{ "type": "Feature", "properties": { "element": "node", "id": 6075744416, "name": "Désilles", "amenity": null, "highway": "bus_stop" }, "geometry": { "type": "Point", "coordinates": [ 6.1738681, 48.6982716 ] } },
{ "type": "Feature", "properties": { "element": "node", "id": 6724481237, "name": "Gare Thiers", "amenity": "bicycle_rental", "highway": null }, "geometry": { "type": "Point", "coordinates": [ 6.1756014, 48.6902575 ] } },
{ "type": "Feature", "properties": { "element": "node", "id": 6741988851, "name": "Lobau", "amenity": null, "highway": "bus_stop" }, "geometry": { "type": "Point", "coordinates": [ 6.1973991, 48.6823335 ] } },
{ "type": "Feature", "properties": { "element": "node", "id": 6741988859, "name": "Lobau", "amenity": null, "highway": "bus_stop" }, "geometry": { "type": "Point", "coordinates": [ 6.1975581, 48.6820138 ] } },
{ "type": "Feature", "properties": { "element": "node", "id": 6742010078, "name": "Molitor", "amenity": null, "highway": "bus_stop" }, "geometry": { "type": "Point", "coordinates": [ 6.1959397, 48.6851427 ] } },
{ "type": "Feature", "properties": { "element": "node", "id": 6744632403, "name": "Cimetière du Sud", "amenity": null, "highway": "bus_stop" }, "geometry": { "type": "Point", "coordinates": [ 6.1916308, 48.6771886 ] } },
{ "type": "Feature", "properties": { "element": "node", "id": 6744632408, "name": "Cimetière du Sud", "amenity": null, "highway": "bus_stop" }, "geometry": { "type": "Point", "coordinates": [ 6.1921675, 48.6764913 ] } },
{ "type": "Feature", "properties": { "element": "node", "id": 6765169795, "name": "Faculté de Droit", "amenity": null, "highway": "bus_stop" }, "geometry": { "type": "Point", "coordinates": [ 6.1752677, 48.6931537 ] } },
{ "type": "Feature", "properties": { "element": "node", "id": 6767483067, "name": "Désilles", "amenity": null, "highway": "bus_stop" }, "geometry": { "type": "Point", "coordinates": [ 6.1739115, 48.6983944 ] } },
{ "type": "Feature", "properties": { "element": "node", "id": 7688751000, "name": "Médreville", "amenity": "bicycle_rental", "highway": null }, "geometry": { "type": "Point", "coordinates": [ 6.1610793, 48.6853718 ] } },
{ "type": "Feature", "properties": { "element": "node", "id": 7725444797, "name": "Saint-Epvre", "amenity": "bicycle_rental", "highway": null }, "geometry": { "type": "Point", "coordinates": [ 6.179787, 48.6953065 ] } },
{ "type": "Feature", "properties": { "element": "node", "id": 7884522173, "name": "Artem", "amenity": "bicycle_rental", "highway": null }, "geometry": { "type": "Point", "coordinates": [ 6.1705993, 48.6747373 ] } },
{ "type": "Feature", "properties": { "element": "node", "id": 8179609082, "name": "Bisiaux", "amenity": null, "highway": "bus_stop" }, "geometry": { "type": "Point", "coordinates": [ 6.1465257, 48.7018519 ] } },
{ "type": "Feature", "properties": { "element": "node", "id": 8334851594, "name": "Gambetta", "amenity": null, "highway": "bus_stop" }, "geometry": { "type": "Point", "coordinates": [ 6.1803871, 48.6921782 ] } },
{ "type": "Feature", "properties": { "element": "node", "id": 8334900111, "name": "Léopold", "amenity": null, "highway": "bus_stop" }, "geometry": { "type": "Point", "coordinates": [ 6.1758774, 48.6971217 ] } },
{ "type": "Feature", "properties": { "element": "node", "id": 8364716046, "name": "Saint-Nicolas", "amenity": null, "highway": "bus_stop" }, "geometry": { "type": "Point", "coordinates": [ 6.1855157, 48.6889971 ] } },
{ "type": "Feature", "properties": { "element": "node", "id": 8806025660, "name": "Université de la poste", "amenity": "university", "highway": null }, "geometry": { "type": "Point", "coordinates": [ 6.1926623, 48.6889544 ] } },
{ "type": "Feature", "properties": { "element": "node", "id": 9258752413, "name": "Institut des sciences du Digital Management & Cognition", "amenity": "university", "highway": null }, "geometry": { "type": "Point", "coordinates": [ 6.1716956, 48.6974346 ] } },
{ "type": "Feature", "properties": { "element": "node", "id": 9874566967, "name": null, "amenity": "bicycle_rental", "highway": null }, "geometry": { "type": "Point", "coordinates": [ 6.2015388, 48.6929049 ] } },
{ "type": "Feature", "properties": { "element": "node", "id": 10754207892, "name": "Charles III", "amenity": null, "highway": "bus_stop" }, "geometry": { "type": "Point", "coordinates": [ 6.1850734, 48.686764 ] } },
{ "type": "Feature", "properties": { "element": "node", "id": 10779203584, "name": "Cristalleries - Stade Marcel Picot", "amenity": null, "highway": "bus_stop" }, "geometry": { "type": "Point", "coordinates": [ 6.1984944, 48.6976813 ] } },
{ "type": "Feature", "properties": { "element": "node", "id": 10779203589, "name": "Jardiniers", "amenity": null, "highway": "bus_stop" }, "geometry": { "type": "Point", "coordinates": [ 6.1920111, 48.6892165 ] } },
{ "type": "Feature", "properties": { "element": "node", "id": 11750022815, "name": "Navette TGV", "amenity": null, "highway": "bus_stop" }, "geometry": { "type": "Point", "coordinates": [ 6.1726489, 48.6892669 ] } },
{ "type": "Feature", "properties": { "element": "node", "id": 11844422534, "name": "Saurupt", "amenity": "bicycle_rental", "highway": null }, "geometry": { "type": "Point", "coordinates": [ 6.181809, 48.6804504 ] } },
{ "type": "Feature", "properties": { "element": "node", "id": 12492423258, "name": "Mon Désert", "amenity": "bicycle_rental", "highway": null }, "geometry": { "type": "Point", "coordinates": [ 6.1764239, 48.6841068 ] } },
{ "type": "Feature", "properties": { "element": "node", "id": 12996137133, "name": "Oudinot", "amenity": null, "highway": "bus_stop" }, "geometry": { "type": "Point", "coordinates": [ 6.1785724, 48.6762965 ] } },
{ "type": "Feature", "properties": { "element": "node", "id": 13165714362, "name": "Gare - Saint Léon", "amenity": null, "highway": "bus_stop" }, "geometry": { "type": "Point", "coordinates": [ 6.1741335, 48.6873652 ] } },
{ "type": "Feature", "properties": { "element": "node", "id": 13165890985, "name": "Campus Lettres", "amenity": null, "highway": "bus_stop" }, "geometry": { "type": "Point", "coordinates": [ 6.1673858, 48.6957681 ] } },
{ "type": "Feature", "properties": { "element": "node", "id": 13165890989, "name": "Tilleul Argenté", "amenity": null, "highway": "bus_stop" }, "geometry": { "type": "Point", "coordinates": [ 6.1550503, 48.7031757 ] } },
{ "type": "Feature", "properties": { "element": "node", "id": 13165890990, "name": "Les Ombelles", "amenity": null, "highway": "bus_stop" }, "geometry": { "type": "Point", "coordinates": [ 6.1471315, 48.7009337 ] } },
{ "type": "Feature", "properties": { "element": "node", "id": 13168425806, "name": "Marquette", "amenity": null, "highway": "bus_stop" }, "geometry": { "type": "Point", "coordinates": [ 6.1526235, 48.6911291 ] } },
{ "type": "Feature", "properties": { "element": "node", "id": 13168425807, "name": "Boufflers", "amenity": null, "highway": "bus_stop" }, "geometry": { "type": "Point", "coordinates": [ 6.1381937, 48.6929496 ] } },
{ "type": "Feature", "properties": { "element": "node", "id": 13175126543, "name": "Carsat", "amenity": null, "highway": "bus_stop" }, "geometry": { "type": "Point", "coordinates": [ 6.1703813, 48.7032727 ] } },
{ "type": "Feature", "properties": { "element": "node", "id": 13373411889, "name": "Division de Fer", "amenity": null, "highway": "bus_stop" }, "geometry": { "type": "Point", "coordinates": [ 6.1914682, 48.6936524 ] } },
{ "type": "Feature", "properties": { "element": "node", "id": 13373440249, "name": "Division de Fer", "amenity": null, "highway": "bus_stop" }, "geometry": { "type": "Point", "coordinates": [ 6.191555, 48.693593 ] } },
{ "type": "Feature", "properties": { "element": "node", "id": 13509433770, "name": "Pigier Nancy", "amenity": "university", "highway": null }, "geometry": { "type": "Point", "coordinates": [ 6.1989609, 48.6887007 ] } },
{ "type": "Feature", "properties": { "element": "node", "id": 13512152133, "name": "École International Tunon", "amenity": "university", "highway": null }, "geometry": { "type": "Point", "coordinates": [ 6.1787036, 48.6929275 ] } },
{ "type": "Feature", "properties": { "element": "node", "id": 13517695815, "name": "Point Central", "amenity": null, "highway": "bus_stop" }, "geometry": { "type": "Point", "coordinates": [ 6.1818557, 48.6905551 ] } },
{ "type": "Feature", "properties": { "element": "node", "id": 13517695834, "name": "Point Central", "amenity": null, "highway": "bus_stop" }, "geometry": { "type": "Point", "coordinates": [ 6.1828868, 48.6909521 ] } },
{ "type": "Feature", "properties": { "element": "node", "id": 13517695859, "name": "Gare - Pierre Semard", "amenity": null, "highway": "bus_stop" }, "geometry": { "type": "Point", "coordinates": [ 6.1772682, 48.689068 ] } },
{ "type": "Feature", "properties": { "element": "node", "id": 13517695860, "name": "Gare - Pierre Semard", "amenity": null, "highway": "bus_stop" }, "geometry": { "type": "Point", "coordinates": [ 6.1772128, 48.6891311 ] } },
{ "type": "Feature", "properties": { "element": "node", "id": 13519659018, "name": "Nancy Gare - République", "amenity": null, "highway": "bus_stop" }, "geometry": { "type": "Point", "coordinates": [ 6.1763221, 48.6883625 ] } },
{ "type": "Feature", "properties": { "element": "node", "id": 13519659019, "name": "Nancy Gare - République", "amenity": null, "highway": "bus_stop" }, "geometry": { "type": "Point", "coordinates": [ 6.1765082, 48.6884242 ] } },
{ "type": "Feature", "properties": { "element": "node", "id": 13519659020, "name": "Nancy Gare - République", "amenity": null, "highway": "bus_stop" }, "geometry": { "type": "Point", "coordinates": [ 6.176767, 48.6885112 ] } },
{ "type": "Feature", "properties": { "element": "node", "id": 13519659027, "name": "Nancy Gare - République", "amenity": null, "highway": "bus_stop" }, "geometry": { "type": "Point", "coordinates": [ 6.176638, 48.6888006 ] } },
{ "type": "Feature", "properties": { "element": "node", "id": 13519659028, "name": "Nancy Gare - République", "amenity": null, "highway": "bus_stop" }, "geometry": { "type": "Point", "coordinates": [ 6.1763083, 48.688715 ] } },
{ "type": "Feature", "properties": { "element": "node", "id": 13519659029, "name": "Nancy Gare - République", "amenity": null, "highway": "bus_stop" }, "geometry": { "type": "Point", "coordinates": [ 6.1759739, 48.6886044 ] } },
{ "type": "Feature", "properties": { "element": "node", "id": 13519659030, "name": "Nancy Gare - République", "amenity": null, "highway": "bus_stop" }, "geometry": { "type": "Point", "coordinates": [ 6.1760642, 48.6885154 ] } },
{ "type": "Feature", "properties": { "element": "node", "id": 13519659031, "name": "Nancy Gare - République", "amenity": null, "highway": "bus_stop" }, "geometry": { "type": "Point", "coordinates": [ 6.1763797, 48.6886171 ] } },
{ "type": "Feature", "properties": { "element": "node", "id": 13519659033, "name": "Nancy Gare - République", "amenity": null, "highway": "bus_stop" }, "geometry": { "type": "Point", "coordinates": [ 6.17645, 48.6885451 ] } },
{ "type": "Feature", "properties": { "element": "node", "id": 13519659034, "name": "Nancy Gare - République", "amenity": null, "highway": "bus_stop" }, "geometry": { "type": "Point", "coordinates": [ 6.1761441, 48.6884459 ] } },
{ "type": "Feature", "properties": { "element": "relation", "id": 2145807, "name": "École Européenne d'Ingénieurs en Génie des Matériaux", "amenity": "college", "highway": null }, "geometry": { "type": "Polygon", "coordinates": [ [ [ 6.193473, 48.695103 ], [ 6.193422, 48.695088 ], [ 6.19339, 48.695129 ], [ 6.193175, 48.69502 ], [ 6.1930176, 48.6951504 ], [ 6.19284, 48.695298 ], [ 6.19296, 48.695363 ], [ 6.192927, 48.695415 ], [ 6.1931632, 48.695486 ], [ 6.193404, 48.695562 ], [ 6.193478, 48.695454 ], [ 6.193486, 48.695456 ], [ 6.193499, 48.6954375 ], [ 6.193611, 48.695278 ], [ 6.193602, 48.695275 ], [ 6.19368, 48.695165 ], [ 6.19357, 48.695132 ], [ 6.193473, 48.695103 ] ], [ [ 6.193097, 48.695168 ], [ 6.193107, 48.69518 ], [ 6.193119, 48.695189 ], [ 6.193134, 48.695197 ], [ 6.193154, 48.695204 ], [ 6.193169, 48.695207 ], [ 6.193192, 48.695209 ], [ 6.193222, 48.695206 ], [ 6.193247, 48.695199 ], [ 6.193271, 48.695186 ], [ 6.193287, 48.69517 ], [ 6.193338, 48.695186 ], [ 6.193257, 48.695311 ], [ 6.193042, 48.695251 ], [ 6.193097, 48.695168 ] ] ] } },
{ "type": "Feature", "properties": { "element": "relation", "id": 9691371, "name": null, "amenity": null, "highway": null }, "geometry": { "type": "Polygon", "coordinates": [ [ [ 6.1694886, 48.6746673 ], [ 6.1694826, 48.6746753 ], [ 6.170115, 48.674887 ], [ 6.1702251, 48.674737 ], [ 6.1701318, 48.6747058 ], [ 6.1702294, 48.67458 ], [ 6.1702757, 48.6745955 ], [ 6.1703594, 48.6745561 ], [ 6.1704571, 48.6744246 ], [ 6.1703855, 48.6744008 ], [ 6.1698812, 48.674271 ], [ 6.169556, 48.6745123 ], [ 6.1693974, 48.6744593 ], [ 6.1692915, 48.6746005 ], [ 6.1694886, 48.6746673 ] ], [ [ 6.1698884, 48.6744257 ], [ 6.1701019, 48.6745388 ], [ 6.170006, 48.6746639 ], [ 6.1696422, 48.6745413 ], [ 6.1698884, 48.6744257 ] ] ] } },
{ "type": "Feature", "properties": { "element": "relation", "id": 10781175, "name": "Bâtiment Sellier 2", "amenity": "university", "highway": null }, "geometry": { "type": "Polygon", "coordinates": [ [ [ 6.1794662, 48.6996771 ], [ 6.1790881, 48.6995815 ], [ 6.1787581, 48.6995204 ], [ 6.178738, 48.6995912 ], [ 6.1786879, 48.6995867 ], [ 6.1786837, 48.6996036 ], [ 6.1787338, 48.6996088 ], [ 6.1787213, 48.6996589 ], [ 6.1788269, 48.6996782 ], [ 6.1788044, 48.6997324 ], [ 6.1787139, 48.6997207 ], [ 6.1787028, 48.6997734 ], [ 6.1786992, 48.6997904 ], [ 6.1786857, 48.6998541 ], [ 6.1792691, 48.699905 ], [ 6.1792703, 48.6998958 ], [ 6.1793388, 48.699902 ], [ 6.1793786, 48.6998329 ], [ 6.1792651, 48.6998103 ], [ 6.1792865, 48.6997581 ], [ 6.1794046, 48.6997789 ], [ 6.1794662, 48.6996771 ] ], [ [ 6.1789043, 48.6997475 ], [ 6.1789258, 48.6996952 ], [ 6.1791953, 48.699743 ], [ 6.1791759, 48.6997917 ], [ 6.1789043, 48.6997475 ] ] ] } },
{ "type": "Feature", "properties": { "element": "relation", "id": 12486752, "name": "Résidence Monbois", "amenity": "student_accommodation", "highway": null }, "geometry": { "type": "MultiPolygon", "coordinates": [ [ [ [ 6.1622793, 48.6972254 ], [ 6.1623252, 48.6972755 ], [ 6.1642386, 48.6973403 ], [ 6.1642898, 48.6973031 ], [ 6.1644407, 48.6967458 ], [ 6.1644098, 48.6967103 ], [ 6.1635904, 48.6965953 ], [ 6.1635042, 48.6965837 ], [ 6.1628138, 48.6964944 ], [ 6.1628116, 48.6965062 ], [ 6.1627482, 48.6965278 ], [ 6.1626921, 48.6965469 ], [ 6.1626707, 48.6965442 ], [ 6.1624249, 48.6969736 ], [ 6.162391, 48.6970324 ], [ 6.1623115, 48.6971701 ], [ 6.1622793, 48.6972254 ] ] ], [ [ [ 6.1613131, 48.6978014 ], [ 6.1613879, 48.6976722 ], [ 6.1614129, 48.6976311 ], [ 6.1614561, 48.6975584 ], [ 6.1614801, 48.6975181 ], [ 6.1614969, 48.69749 ], [ 6.1615147, 48.6974602 ], [ 6.1615291, 48.6974362 ], [ 6.1615627, 48.6973805 ], [ 6.1616025, 48.6973136 ], [ 6.1616366, 48.6972563 ], [ 6.1616524, 48.6972296 ], [ 6.1616865, 48.6971726 ], [ 6.1617837, 48.6970223 ], [ 6.1618115, 48.6969822 ], [ 6.1618206, 48.6969586 ], [ 6.1618421, 48.6969033 ], [ 6.1618536, 48.6968751 ], [ 6.1618636, 48.6968492 ], [ 6.1618723, 48.6968295 ], [ 6.1619025, 48.6967822 ], [ 6.1615008, 48.696544 ], [ 6.1605806, 48.6967344 ], [ 6.1604759, 48.696757 ], [ 6.1604807, 48.696767 ], [ 6.160515, 48.6968388 ], [ 6.160104, 48.6969433 ], [ 6.1599679, 48.6971097 ], [ 6.1599198, 48.6971635 ], [ 6.1599356, 48.6971699 ], [ 6.1599509, 48.6972016 ], [ 6.1599274, 48.6972328 ], [ 6.1598836, 48.697238 ], [ 6.1598636, 48.6972314 ], [ 6.1597579, 48.6973488 ], [ 6.1597552, 48.6973541 ], [ 6.1595684, 48.6975677 ], [ 6.1595388, 48.6976014 ], [ 6.1596789, 48.6976545 ], [ 6.1600205, 48.6976947 ], [ 6.1613131, 48.6978014 ] ] ] ] } },
{ "type": "Feature", "properties": { "element": "relation", "id": 18004971, "name": null, "amenity": null, "highway": null }, "geometry": { "type": "Polygon", "coordinates": [ [ [ 6.1706683, 48.6969165 ], [ 6.170588, 48.6971237 ], [ 6.1706176, 48.6971331 ], [ 6.1707048, 48.6971607 ], [ 6.170732, 48.6971693 ], [ 6.1707591, 48.6971779 ], [ 6.1706932, 48.6972622 ], [ 6.1708995, 48.697328 ], [ 6.1709163, 48.6973057 ], [ 6.1709796, 48.6973262 ], [ 6.1709641, 48.6973488 ], [ 6.171169, 48.6974159 ], [ 6.1712287, 48.6973358 ], [ 6.1712921, 48.6973566 ], [ 6.1712334, 48.6974374 ], [ 6.1714384, 48.697504 ], [ 6.1714545, 48.6974814 ], [ 6.1715166, 48.6975027 ], [ 6.1715002, 48.6975242 ], [ 6.1717044, 48.697593 ], [ 6.1717667, 48.6975084 ], [ 6.1717306, 48.6974982 ], [ 6.1717485, 48.697463 ], [ 6.1717554, 48.6974494 ], [ 6.1717751, 48.6974106 ], [ 6.1717927, 48.6974161 ], [ 6.1718846, 48.6972946 ], [ 6.1717094, 48.6972357 ], [ 6.1716258, 48.6973456 ], [ 6.1715866, 48.6973327 ], [ 6.1713041, 48.6972398 ], [ 6.1708633, 48.6970912 ], [ 6.1708274, 48.6970791 ], [ 6.170843, 48.6970559 ], [ 6.1708814, 48.6969987 ], [ 6.1708913, 48.6969839 ], [ 6.1706683, 48.6969165 ] ] ] } },
{ "type": "Feature", "properties": { "element": "way", "id": 38162926, "name": null, "amenity": null, "highway": null }, "geometry": { "type": "Polygon", "coordinates": [ [ [ 6.1969281, 48.6805336 ], [ 6.1969537, 48.6805513 ], [ 6.1972731, 48.6803461 ], [ 6.1971097, 48.680234 ], [ 6.1970523, 48.6802704 ], [ 6.197018, 48.6802468 ], [ 6.19703, 48.6802396 ], [ 6.1969081, 48.680156 ], [ 6.1968757, 48.6801771 ], [ 6.1968337, 48.6801486 ], [ 6.1968628, 48.6801293 ], [ 6.196626, 48.6799664 ], [ 6.1965835, 48.6799932 ], [ 6.1965496, 48.6799693 ], [ 6.1964989, 48.6799723 ], [ 6.1964923, 48.6799684 ], [ 6.1966326, 48.6798688 ], [ 6.1966673, 48.6798921 ], [ 6.1967487, 48.679834 ], [ 6.1966851, 48.679796 ], [ 6.1966686, 48.6798078 ], [ 6.1965529, 48.6797356 ], [ 6.1964825, 48.6797856 ], [ 6.1964942, 48.6797929 ], [ 6.1963143, 48.6799191 ], [ 6.196304, 48.6799121 ], [ 6.1962342, 48.6799633 ], [ 6.1962608, 48.6799814 ], [ 6.1962405, 48.6799943 ], [ 6.1962844, 48.6800223 ], [ 6.1962311, 48.6800605 ], [ 6.1962535, 48.6800742 ], [ 6.196151, 48.6801477 ], [ 6.1962941, 48.680236 ], [ 6.1962531, 48.6802637 ], [ 6.1963427, 48.6803176 ], [ 6.1963983, 48.6802783 ], [ 6.1964091, 48.6802854 ], [ 6.1964195, 48.6802903 ], [ 6.196437, 48.6802943 ], [ 6.1964534, 48.6802942 ], [ 6.1964688, 48.6802913 ], [ 6.1964849, 48.6802837 ], [ 6.1964955, 48.6802749 ], [ 6.1965007, 48.6802644 ], [ 6.1965017, 48.6802536 ], [ 6.1964985, 48.6802442 ], [ 6.1964896, 48.6802345 ], [ 6.1964745, 48.6802245 ], [ 6.1965115, 48.6801984 ], [ 6.1963941, 48.6801249 ], [ 6.1963725, 48.6801113 ], [ 6.1963285, 48.6800838 ], [ 6.1963749, 48.6800504 ], [ 6.1963824, 48.6800537 ], [ 6.1964689, 48.6799926 ], [ 6.1964781, 48.6799981 ], [ 6.1964478, 48.6800203 ], [ 6.1964795, 48.680043 ], [ 6.196492, 48.680052 ], [ 6.196456, 48.680075 ], [ 6.1964635, 48.6800801 ], [ 6.1966977, 48.6802384 ], [ 6.1967275, 48.6802186 ], [ 6.1967692, 48.6802467 ], [ 6.1967396, 48.6802667 ], [ 6.1967717, 48.6802894 ], [ 6.1967418, 48.6803092 ], [ 6.1967909, 48.6803429 ], [ 6.196822, 48.680323 ], [ 6.196858, 48.680347 ], [ 6.196871, 48.680339 ], [ 6.196907, 48.680363 ], [ 6.1968825, 48.6803788 ], [ 6.1967897, 48.6804386 ], [ 6.1969076, 48.6805201 ], [ 6.1969027, 48.6805251 ], [ 6.1969216, 48.680538 ], [ 6.1969281, 48.6805336 ] ] ] } },
{ "type": "Feature", "properties": { "element": "way", "id": 42485796, "name": null, "amenity": null, "highway": null }, "geometry": { "type": "Polygon", "coordinates": [ [ [ 6.1814622, 48.6835745 ], [ 6.1814199, 48.6835584 ], [ 6.1813801, 48.6836041 ], [ 6.1815849, 48.6836869 ], [ 6.1816932, 48.6835665 ], [ 6.1818065, 48.6836107 ], [ 6.1819155, 48.6834892 ], [ 6.1818029, 48.6834449 ], [ 6.1819038, 48.6833252 ], [ 6.1818484, 48.6833022 ], [ 6.1817888, 48.6832777 ], [ 6.1816797, 48.6833975 ], [ 6.181657, 48.6833907 ], [ 6.1816302, 48.6834206 ], [ 6.1815981, 48.6834099 ], [ 6.1815862, 48.6834076 ], [ 6.1815682, 48.6834078 ], [ 6.1815515, 48.683412 ], [ 6.1815389, 48.6834187 ], [ 6.1815296, 48.6834285 ], [ 6.1815254, 48.6834394 ], [ 6.1815265, 48.6834492 ], [ 6.1815315, 48.6834577 ], [ 6.1815378, 48.6834641 ], [ 6.181544, 48.6834685 ], [ 6.1815536, 48.6834726 ], [ 6.1814622, 48.6835745 ] ] ] } },
{ "type": "Feature", "properties": { "element": "way", "id": 42665774, "name": null, "amenity": null, "highway": null }, "geometry": { "type": "Polygon", "coordinates": [ [ [ 6.1953153, 48.6768069 ], [ 6.1953209, 48.6768005 ], [ 6.1953719, 48.6768183 ], [ 6.195446, 48.6767223 ], [ 6.1953938, 48.6767046 ], [ 6.1954002, 48.6766986 ], [ 6.1953582, 48.6766841 ], [ 6.1953132, 48.6766686 ], [ 6.1952737, 48.676655 ], [ 6.1950867, 48.6765911 ], [ 6.1950612, 48.6766991 ], [ 6.1950294, 48.676696 ], [ 6.195022, 48.6766894 ], [ 6.1950102, 48.6766839 ], [ 6.1950012, 48.6766819 ], [ 6.194988, 48.6766816 ], [ 6.1949751, 48.6766841 ], [ 6.194964, 48.6766891 ], [ 6.1949527, 48.6767023 ], [ 6.1949306, 48.6766938 ], [ 6.1947478, 48.6769272 ], [ 6.1948155, 48.6769509 ], [ 6.1948928, 48.6769609 ], [ 6.1948335, 48.6772303 ], [ 6.1948127, 48.6773222 ], [ 6.1948058, 48.6773429 ], [ 6.1948825, 48.677368 ], [ 6.1948865, 48.6773614 ], [ 6.1949019, 48.677366 ], [ 6.1949086, 48.6773831 ], [ 6.1949264, 48.6773902 ], [ 6.1949494, 48.6773951 ], [ 6.1949723, 48.677383 ], [ 6.1949788, 48.6773702 ], [ 6.1949809, 48.6773701 ], [ 6.1949897, 48.6773327 ], [ 6.1950368, 48.6773489 ], [ 6.195061, 48.677242 ], [ 6.1950144, 48.6772369 ], [ 6.1951364, 48.6767293 ], [ 6.1951655, 48.6767338 ], [ 6.1951925, 48.6767438 ], [ 6.1951797, 48.6767598 ], [ 6.1953153, 48.6768069 ] ] ] } },
{ "type": "Feature", "properties": { "element": "way", "id": 42862080, "name": null, "amenity": null, "highway": null }, "geometry": { "type": "Polygon", "coordinates": [ [ [ 6.1907719, 48.682026 ], [ 6.1908989, 48.6821127 ], [ 6.190924, 48.6820975 ], [ 6.1909524, 48.6821168 ], [ 6.1909043, 48.6821469 ], [ 6.1909245, 48.6821605 ], [ 6.1910069, 48.6821083 ], [ 6.1910416, 48.6821324 ], [ 6.1910614, 48.682146 ], [ 6.1909571, 48.6822129 ], [ 6.1911751, 48.6823632 ], [ 6.1912806, 48.6822965 ], [ 6.1913303, 48.6823306 ], [ 6.1914223, 48.6823938 ], [ 6.1912402, 48.6825076 ], [ 6.1912483, 48.6825127 ], [ 6.1911148, 48.6825956 ], [ 6.1909665, 48.6826876 ], [ 6.1909611, 48.6826837 ], [ 6.1908624, 48.6826127 ], [ 6.1908216, 48.6825835 ], [ 6.1908781, 48.6825479 ], [ 6.1908812, 48.6825501 ], [ 6.191023, 48.6824607 ], [ 6.1908332, 48.6823282 ], [ 6.1908752, 48.6823039 ], [ 6.1908287, 48.6822711 ], [ 6.1908293, 48.6822485 ], [ 6.1909001, 48.6822033 ], [ 6.1908807, 48.6821885 ], [ 6.1908918, 48.6821826 ], [ 6.1907163, 48.6820601 ], [ 6.1907719, 48.682026 ] ] ] } },
{ "type": "Feature", "properties": { "element": "way", "id": 45327296, "name": null, "amenity": null, "highway": null }, "geometry": { "type": "Polygon", "coordinates": [ [ [ 6.1725909, 48.6974502 ], [ 6.1726134, 48.6973894 ], [ 6.1726487, 48.6972934 ], [ 6.1724862, 48.6972727 ], [ 6.1725095, 48.6971845 ], [ 6.1726954, 48.6972027 ], [ 6.1727065, 48.6971642 ], [ 6.1725497, 48.6971463 ], [ 6.1722479, 48.6971114 ], [ 6.172228, 48.6971382 ], [ 6.1721597, 48.69723 ], [ 6.1722969, 48.6972478 ], [ 6.1723479, 48.6972546 ], [ 6.1723018, 48.6973873 ], [ 6.1722946, 48.6974089 ], [ 6.1724988, 48.6974374 ], [ 6.1725909, 48.6974502 ] ] ] } },
{ "type": "Feature", "properties": { "element": "way", "id": 48042594, "name": null, "amenity": null, "highway": null }, "geometry": { "type": "Polygon", "coordinates": [ [ [ 6.1765521, 48.6761144 ], [ 6.1766118, 48.6760891 ], [ 6.1766417, 48.6760519 ], [ 6.1766169, 48.676033 ], [ 6.1766891, 48.6760003 ], [ 6.1765512, 48.6758797 ], [ 6.1763834, 48.6759624 ], [ 6.1765521, 48.6761144 ] ] ] } },
{ "type": "Feature", "properties": { "element": "way", "id": 48042596, "name": null, "amenity": null, "highway": null }, "geometry": { "type": "Polygon", "coordinates": [ [ [ 6.17737, 48.6760342 ], [ 6.1774716, 48.6760913 ], [ 6.1774979, 48.676106 ], [ 6.1781615, 48.6755988 ], [ 6.1781488, 48.6755905 ], [ 6.1780321, 48.6755241 ], [ 6.1777747, 48.6757224 ], [ 6.1776457, 48.6758218 ], [ 6.1775974, 48.675859 ], [ 6.17737, 48.6760342 ] ] ] } },
{ "type": "Feature", "properties": { "element": "way", "id": 48368714, "name": null, "amenity": null, "highway": null }, "geometry": { "type": "Polygon", "coordinates": [ [ [ 6.1832325, 48.6801505 ], [ 6.1828258, 48.680127 ], [ 6.1828435, 48.6799738 ], [ 6.1828666, 48.6799764 ], [ 6.1828724, 48.6799356 ], [ 6.1825994, 48.6799223 ], [ 6.182595, 48.6799611 ], [ 6.1826181, 48.6799633 ], [ 6.1825999, 48.6801102 ], [ 6.1824968, 48.6801049 ], [ 6.1824773, 48.6802455 ], [ 6.1825843, 48.6802536 ], [ 6.1825969, 48.6801573 ], [ 6.1829774, 48.6801762 ], [ 6.1829534, 48.6803737 ], [ 6.1831782, 48.6803852 ], [ 6.1832034, 48.6801857 ], [ 6.1832273, 48.6801878 ], [ 6.1832325, 48.6801505 ] ] ] } },
{ "type": "Feature", "properties": { "element": "way", "id": 48368800, "name": null, "amenity": null, "highway": null }, "geometry": { "type": "Polygon", "coordinates": [ [ [ 6.1838343, 48.6802221 ], [ 6.1838585, 48.680028 ], [ 6.1838837, 48.6800296 ], [ 6.1838887, 48.6799893 ], [ 6.1834791, 48.6799665 ], [ 6.1834975, 48.6798117 ], [ 6.1835205, 48.6798129 ], [ 6.1835277, 48.679772 ], [ 6.1832569, 48.6797577 ], [ 6.1832482, 48.6797986 ], [ 6.1832713, 48.6798008 ], [ 6.1832544, 48.6799271 ], [ 6.1830482, 48.6799165 ], [ 6.1830416, 48.6799837 ], [ 6.1836322, 48.6800166 ], [ 6.1836102, 48.6802091 ], [ 6.1838343, 48.6802221 ] ] ] } },
{ "type": "Feature", "properties": { "element": "way", "id": 48368801, "name": null, "amenity": null, "highway": null }, "geometry": { "type": "Polygon", "coordinates": [ [ [ 6.1840372, 48.6799513 ], [ 6.1839993, 48.680262 ], [ 6.18412, 48.6802702 ], [ 6.1841489, 48.6800227 ], [ 6.1841119, 48.6800209 ], [ 6.1841188, 48.6799558 ], [ 6.1840372, 48.6799513 ] ] ] } },
{ "type": "Feature", "properties": { "element": "way", "id": 48630201, "name": "Presses Universitaires de Nancy", "amenity": null, "highway": null }, "geometry": { "type": "Polygon", "coordinates": [ [ [ 6.166616, 48.6932041 ], [ 6.166586, 48.6932931 ], [ 6.1665517, 48.6933952 ], [ 6.1664438, 48.6933786 ], [ 6.1665089, 48.6931855 ], [ 6.166616, 48.6932041 ] ] ] } },
{ "type": "Feature", "properties": { "element": "way", "id": 48630203, "name": null, "amenity": null, "highway": null }, "geometry": { "type": "Polygon", "coordinates": [ [ [ 6.1666756, 48.6947908 ], [ 6.1665178, 48.6948104 ], [ 6.1664896, 48.694805 ], [ 6.1665178, 48.6945534 ], [ 6.1665324, 48.6945525 ], [ 6.1665294, 48.6944486 ], [ 6.1664905, 48.6944496 ], [ 6.1664724, 48.6944501 ], [ 6.1664707, 48.6944679 ], [ 6.1662235, 48.6944676 ], [ 6.1662214, 48.6943013 ], [ 6.166274, 48.6943019 ], [ 6.1662759, 48.6943199 ], [ 6.1662993, 48.6943157 ], [ 6.1663351, 48.6943139 ], [ 6.1663704, 48.6943137 ], [ 6.1664126, 48.6943163 ], [ 6.1664504, 48.6943217 ], [ 6.1664812, 48.6943277 ], [ 6.1665081, 48.6943358 ], [ 6.1665279, 48.6943432 ], [ 6.1665294, 48.6942626 ], [ 6.16653, 48.6942327 ], [ 6.1666383, 48.6942384 ], [ 6.1666529, 48.6942392 ], [ 6.1666611, 48.6942094 ], [ 6.1666738, 48.6941632 ], [ 6.1667866, 48.6941752 ], [ 6.1668398, 48.6941809 ], [ 6.1668169, 48.6942723 ], [ 6.1667829, 48.6944085 ], [ 6.1667826, 48.6944098 ], [ 6.1667472, 48.694551 ], [ 6.1667119, 48.6946923 ], [ 6.166688, 48.6947877 ], [ 6.1666756, 48.6947908 ] ] ] } },
{ "type": "Feature", "properties": { "element": "way", "id": 50208441, "name": "Les Abeilles", "amenity": "social_facility", "highway": null }, "geometry": { "type": "Polygon", "coordinates": [ [ [ 6.1763999, 48.6818402 ], [ 6.1766023, 48.6819234 ], [ 6.176606, 48.6819375 ], [ 6.1766003, 48.6819537 ], [ 6.1762905, 48.6822411 ], [ 6.1764157, 48.6822991 ], [ 6.176747, 48.6819881 ], [ 6.1767591, 48.6819672 ], [ 6.1767613, 48.681946 ], [ 6.1767626, 48.6819339 ], [ 6.1767541, 48.6819011 ], [ 6.1767334, 48.6818676 ], [ 6.1767034, 48.681848 ], [ 6.176671, 48.6818308 ], [ 6.1764663, 48.6817499 ], [ 6.1764059, 48.6818099 ], [ 6.1763815, 48.681833 ], [ 6.1763999, 48.6818402 ] ] ] } },
{ "type": "Feature", "properties": { "element": "way", "id": 64024336, "name": null, "amenity": "student_accommodation", "highway": null }, "geometry": { "type": "Polygon", "coordinates": [ [ [ 6.187438, 48.692961 ], [ 6.1873577, 48.6929341 ], [ 6.1874509, 48.6928042 ], [ 6.1874669, 48.6928071 ], [ 6.1876493, 48.6925438 ], [ 6.188013, 48.6926612 ], [ 6.1880483, 48.6926727 ], [ 6.1879905, 48.6927533 ], [ 6.1879535, 48.6928048 ], [ 6.1876474, 48.692704 ], [ 6.1876007, 48.6927666 ], [ 6.1876198, 48.6927736 ], [ 6.187484, 48.692957 ], [ 6.187471, 48.692973 ], [ 6.187438, 48.692961 ] ] ] } },
{ "type": "Feature", "properties": { "element": "way", "id": 65072472, "name": "Les Estudines Saint-Dizier", "amenity": "student_accommodation", "highway": null }, "geometry": { "type": "Polygon", "coordinates": [ [ [ 6.1819655, 48.6905294 ], [ 6.1819922, 48.6905381 ], [ 6.1820323, 48.6905512 ], [ 6.1820723, 48.6905642 ], [ 6.1822209, 48.6906127 ], [ 6.1822828, 48.6906329 ], [ 6.1823165, 48.6906439 ], [ 6.1823554, 48.6905923 ], [ 6.1823681, 48.6905754 ], [ 6.1823212, 48.6905593 ], [ 6.1823811, 48.6904715 ], [ 6.1821475, 48.690394 ], [ 6.1820792, 48.6903731 ], [ 6.1819655, 48.6905294 ] ] ] } },
{ "type": "Feature", "properties": { "element": "way", "id": 65252321, "name": null, "amenity": null, "highway": null }, "geometry": { "type": "Polygon", "coordinates": [ [ [ 6.1923611, 48.696194 ], [ 6.1928504, 48.6963368 ], [ 6.1928601, 48.696322 ], [ 6.1932077, 48.6958139 ], [ 6.1932596, 48.695738 ], [ 6.1932689, 48.695725 ], [ 6.1927881, 48.6955809 ], [ 6.1926338, 48.6958025 ], [ 6.1926723, 48.6958151 ], [ 6.192557, 48.6959809 ], [ 6.1925179, 48.6959689 ], [ 6.1923611, 48.696194 ] ] ] } },
{ "type": "Feature", "properties": { "element": "way", "id": 79243067, "name": null, "amenity": null, "highway": null }, "geometry": { "type": "Polygon", "coordinates": [ [ [ 6.1626921, 48.6965469 ], [ 6.1627482, 48.6965278 ], [ 6.1628116, 48.6965062 ], [ 6.1628521, 48.6965519 ], [ 6.1628667, 48.6965466 ], [ 6.1632469, 48.6966013 ], [ 6.1632489, 48.6965919 ], [ 6.1634079, 48.6966131 ], [ 6.1634086, 48.6966074 ], [ 6.163459, 48.6966066 ], [ 6.1634933, 48.696621 ], [ 6.1635042, 48.6965837 ], [ 6.1635904, 48.6965953 ], [ 6.1635775, 48.6966347 ], [ 6.1636627, 48.6966474 ], [ 6.1636223, 48.6967736 ], [ 6.1635382, 48.6967617 ], [ 6.1635369, 48.6967657 ], [ 6.1632912, 48.696732 ], [ 6.163293, 48.6967266 ], [ 6.1632123, 48.6967174 ], [ 6.1632151, 48.6967111 ], [ 6.162897, 48.6966668 ], [ 6.1628598, 48.6966821 ], [ 6.1627394, 48.6968849 ], [ 6.162748, 48.6968878 ], [ 6.1627181, 48.696943 ], [ 6.162724, 48.6969443 ], [ 6.1626405, 48.697093 ], [ 6.1626361, 48.6970914 ], [ 6.1626025, 48.6971465 ], [ 6.1624263, 48.6971052 ], [ 6.1624578, 48.697049 ], [ 6.162391, 48.6970324 ], [ 6.1624249, 48.6969736 ], [ 6.1624763, 48.6969881 ], [ 6.1624782, 48.6969676 ], [ 6.1625018, 48.6969552 ], [ 6.1625046, 48.6969489 ], [ 6.1625105, 48.696951 ], [ 6.1625361, 48.696901 ], [ 6.1625408, 48.6969009 ], [ 6.1625722, 48.696843 ], [ 6.1625787, 48.6968448 ], [ 6.1627156, 48.6965998 ], [ 6.1627312, 48.6965948 ], [ 6.1626921, 48.6965469 ] ] ] } },
{ "type": "Feature", "properties": { "element": "way", "id": 79245974, "name": null, "amenity": null, "highway": null }, "geometry": { "type": "Polygon", "coordinates": [ [ [ 6.1612694, 48.6969357 ], [ 6.1612462, 48.6975203 ], [ 6.1610768, 48.6975182 ], [ 6.1611, 48.6969341 ], [ 6.1612694, 48.6969357 ] ] ] } },
{ "type": "Feature", "properties": { "element": "way", "id": 79247091, "name": null, "amenity": null, "highway": null }, "geometry": { "type": "Polygon", "coordinates": [ [ [ 6.1651354, 48.6974737 ], [ 6.1650261, 48.6978707 ], [ 6.1650154, 48.697869 ], [ 6.1650124, 48.6978796 ], [ 6.1649706, 48.6978739 ], [ 6.1649736, 48.6978622 ], [ 6.1648806, 48.6978522 ], [ 6.1650023, 48.6974075 ], [ 6.1650247, 48.6974103 ], [ 6.1650359, 48.6973605 ], [ 6.1649279, 48.6973478 ], [ 6.1649525, 48.6972497 ], [ 6.1652284, 48.6972819 ], [ 6.1653454, 48.6968477 ], [ 6.1654876, 48.6968648 ], [ 6.1653712, 48.6972999 ], [ 6.165392, 48.6973019 ], [ 6.1653413, 48.6974982 ], [ 6.1651354, 48.6974737 ] ] ] } },
{ "type": "Feature", "properties": { "element": "way", "id": 79247124, "name": "Institut Régional du Travail", "amenity": "university", "highway": null }, "geometry": { "type": "Polygon", "coordinates": [ [ [ 6.1598054, 48.6970487 ], [ 6.1599679, 48.6971097 ], [ 6.1599198, 48.6971635 ], [ 6.1599356, 48.6971699 ], [ 6.1599509, 48.6972016 ], [ 6.1599274, 48.6972328 ], [ 6.1598836, 48.697238 ], [ 6.1598636, 48.6972314 ], [ 6.1597579, 48.6973488 ], [ 6.1595947, 48.6972855 ], [ 6.1598054, 48.6970487 ] ] ] } },
{ "type": "Feature", "properties": { "element": "way", "id": 79942245, "name": null, "amenity": null, "highway": null }, "geometry": { "type": "Polygon", "coordinates": [ [ [ 6.1809248, 48.7061477 ], [ 6.1810902, 48.7062193 ], [ 6.1811279, 48.7062145 ], [ 6.1811213, 48.7061916 ], [ 6.1811551, 48.7061879 ], [ 6.181148, 48.7061657 ], [ 6.1811811, 48.7061617 ], [ 6.1811736, 48.7061375 ], [ 6.1812097, 48.706133 ], [ 6.1812034, 48.7061113 ], [ 6.1812366, 48.7061069 ], [ 6.1812293, 48.7060852 ], [ 6.1812544, 48.7060732 ], [ 6.1812663, 48.7060834 ], [ 6.1813381, 48.706049 ], [ 6.1813103, 48.7060238 ], [ 6.1813153, 48.7060212 ], [ 6.1811378, 48.7058634 ], [ 6.1811789, 48.705844 ], [ 6.1810848, 48.7057612 ], [ 6.1811161, 48.7057455 ], [ 6.1811352, 48.7057332 ], [ 6.1811484, 48.7057178 ], [ 6.1811546, 48.7057008 ], [ 6.1811535, 48.7056831 ], [ 6.1811451, 48.7056664 ], [ 6.1811059, 48.7056304 ], [ 6.1811455, 48.7056113 ], [ 6.1811589, 48.7056235 ], [ 6.1812387, 48.7055839 ], [ 6.1812695, 48.7056092 ], [ 6.1815729, 48.7054594 ], [ 6.1815534, 48.7054428 ], [ 6.1815935, 48.7054231 ], [ 6.1815868, 48.705417 ], [ 6.1816685, 48.7053777 ], [ 6.181625, 48.7053385 ], [ 6.1816074, 48.7053472 ], [ 6.1815948, 48.7053359 ], [ 6.1816188, 48.7053235 ], [ 6.181597, 48.7053043 ], [ 6.1816, 48.7053027 ], [ 6.181537, 48.7052475 ], [ 6.1814453, 48.7052922 ], [ 6.1814762, 48.705319 ], [ 6.1812063, 48.7054516 ], [ 6.1811981, 48.7054443 ], [ 6.1811258, 48.7054825 ], [ 6.1811236, 48.7054806 ], [ 6.1810465, 48.7055186 ], [ 6.1810223, 48.7054953 ], [ 6.1810171, 48.7054971 ], [ 6.1809916, 48.705474 ], [ 6.1809829, 48.7054689 ], [ 6.1809707, 48.7054657 ], [ 6.1809562, 48.7054645 ], [ 6.1809386, 48.7054672 ], [ 6.1809227, 48.7054759 ], [ 6.1808115, 48.7055844 ], [ 6.1808335, 48.7056043 ], [ 6.1805947, 48.7057218 ], [ 6.1806323, 48.7057537 ], [ 6.1806015, 48.7057696 ], [ 6.1805904, 48.7057637 ], [ 6.1805426, 48.705813 ], [ 6.1805351, 48.70581 ], [ 6.1804011, 48.705945 ], [ 6.1805622, 48.7060182 ], [ 6.1806001, 48.7060137 ], [ 6.1805942, 48.7059917 ], [ 6.180627, 48.7059878 ], [ 6.1806208, 48.705965 ], [ 6.180653, 48.7059612 ], [ 6.1806471, 48.7059393 ], [ 6.1806796, 48.7059355 ], [ 6.1806736, 48.7059134 ], [ 6.1807068, 48.7059094 ], [ 6.1807003, 48.7058856 ], [ 6.1808139, 48.7058284 ], [ 6.1808394, 48.7058519 ], [ 6.1808317, 48.7058554 ], [ 6.1809164, 48.7059323 ], [ 6.1809461, 48.7059181 ], [ 6.181063, 48.706022 ], [ 6.1810457, 48.7060402 ], [ 6.1810363, 48.7060352 ], [ 6.1809248, 48.7061477 ] ] ] } },
{ "type": "Feature", "properties": { "element": "way", "id": 84909640, "name": null, "amenity": null, "highway": null }, "geometry": { "type": "Polygon", "coordinates": [ [ [ 6.1584648, 48.684016 ], [ 6.1584527, 48.6840078 ], [ 6.1584419, 48.6840004 ], [ 6.1581944, 48.6841512 ], [ 6.1581403, 48.6841106 ], [ 6.1586896, 48.683776 ], [ 6.1585941, 48.6835077 ], [ 6.1586471, 48.6835014 ], [ 6.1586447, 48.6834909 ], [ 6.1586727, 48.6834862 ], [ 6.1586766, 48.6834969 ], [ 6.1587285, 48.6834897 ], [ 6.1587753, 48.6836198 ], [ 6.1590489, 48.6836698 ], [ 6.158965, 48.68373 ], [ 6.1588038, 48.6837009 ], [ 6.1588299, 48.6837773 ], [ 6.1588867, 48.6838152 ], [ 6.1590141, 48.6837387 ], [ 6.1591095, 48.6836807 ], [ 6.1591358, 48.6836986 ], [ 6.1593847, 48.6835457 ], [ 6.1594394, 48.6835872 ], [ 6.1588889, 48.6839271 ], [ 6.1589548, 48.6841151 ], [ 6.1589788, 48.6841836 ], [ 6.1589321, 48.6841941 ], [ 6.1589367, 48.6842047 ], [ 6.1589077, 48.6842093 ], [ 6.1589037, 48.6841987 ], [ 6.158849, 48.6842103 ], [ 6.1588052, 48.684091 ], [ 6.1587988, 48.6840735 ], [ 6.158527, 48.6840265 ], [ 6.1585561, 48.6840075 ], [ 6.1586182, 48.6839672 ], [ 6.1587714, 48.6839915 ], [ 6.1587449, 48.6839146 ], [ 6.1587128, 48.6838942 ], [ 6.1586899, 48.6838798 ], [ 6.1585606, 48.6839581 ], [ 6.1584648, 48.684016 ] ] ] } },
{ "type": "Feature", "properties": { "element": "way", "id": 89174927, "name": "Les Lauréades", "amenity": "student_accommodation", "highway": null }, "geometry": { "type": "Polygon", "coordinates": [ [ [ 6.1668771, 48.6677487 ], [ 6.166736, 48.66768 ], [ 6.166813, 48.667618 ], [ 6.166827, 48.667625 ], [ 6.166859, 48.667598 ], [ 6.166846, 48.667591 ], [ 6.166861, 48.667578 ], [ 6.16717, 48.667552 ], [ 6.167173, 48.667566 ], [ 6.16722, 48.667562 ], [ 6.167216, 48.667548 ], [ 6.167241, 48.667546 ], [ 6.167268, 48.667559 ], [ 6.167256, 48.667566 ], [ 6.1672727, 48.6675767 ], [ 6.167284, 48.667584 ], [ 6.167298, 48.667575 ], [ 6.1673481, 48.6675997 ], [ 6.1674176, 48.6676341 ], [ 6.167464, 48.667657 ], [ 6.167479, 48.667649 ], [ 6.16751, 48.667664 ], [ 6.167526, 48.667678 ], [ 6.167491, 48.667695 ], [ 6.167657, 48.667808 ], [ 6.167628, 48.667823 ], [ 6.167636, 48.667831 ], [ 6.167666, 48.667861 ], [ 6.167619, 48.667883 ], [ 6.1675061, 48.6679389 ], [ 6.1673731, 48.6680048 ], [ 6.1673085, 48.6680359 ], [ 6.1670398, 48.6678972 ], [ 6.1669938, 48.6678734 ], [ 6.1670391, 48.6678341 ], [ 6.1669827, 48.6678049 ], [ 6.1668771, 48.6677487 ] ] ] } },
{ "type": "Feature", "properties": { "element": "way", "id": 106788443, "name": "Université de Lorraine - Faculté de Pharmacie site Lionnois", "amenity": "university", "highway": null }, "geometry": { "type": "Polygon", "coordinates": [ [ [ 6.1932322, 48.6835942 ], [ 6.1927439, 48.6832784 ], [ 6.1927172, 48.6832611 ], [ 6.1928065, 48.6832016 ], [ 6.192846, 48.6832261 ], [ 6.1928777, 48.6832059 ], [ 6.1929721, 48.6832669 ], [ 6.1930382, 48.6832244 ], [ 6.193061, 48.683238 ], [ 6.1931874, 48.6831523 ], [ 6.1930729, 48.6830748 ], [ 6.193204, 48.682984 ], [ 6.19322, 48.682978 ], [ 6.193242, 48.682975 ], [ 6.1932581, 48.682979 ], [ 6.193364, 48.683038 ], [ 6.1933771, 48.6830284 ], [ 6.193427, 48.6830532 ], [ 6.1937405, 48.6832552 ], [ 6.1936595, 48.6833106 ], [ 6.1936824, 48.6833261 ], [ 6.1932758, 48.6836041 ], [ 6.1932322, 48.6835942 ] ] ] } },
{ "type": "Feature", "properties": { "element": "way", "id": 148688455, "name": null, "amenity": null, "highway": null }, "geometry": { "type": "Polygon", "coordinates": [ [ [ 6.165904, 48.697851 ], [ 6.166034, 48.697369 ], [ 6.165818, 48.697343 ], [ 6.165873, 48.697151 ], [ 6.165898, 48.697154 ], [ 6.166023, 48.696691 ], [ 6.166162, 48.696709 ], [ 6.166037, 48.697168 ], [ 6.166222, 48.69719 ], [ 6.166196, 48.697286 ], [ 6.166176, 48.697284 ], [ 6.166161, 48.697334 ], [ 6.166184, 48.697337 ], [ 6.166045, 48.697866 ], [ 6.165904, 48.697851 ] ] ] } },
{ "type": "Feature", "properties": { "element": "way", "id": 148692385, "name": "Université de Lorraine - Site Jacquinot", "amenity": "university", "highway": null }, "geometry": { "type": "Polygon", "coordinates": [ [ [ 6.167467, 48.699929 ], [ 6.167429, 48.699918 ], [ 6.167308, 48.699886 ], [ 6.1673235, 48.6998667 ], [ 6.1674219, 48.6997442 ], [ 6.1674785, 48.6996737 ], [ 6.167496, 48.699652 ], [ 6.167646, 48.699706 ], [ 6.16759, 48.699778 ], [ 6.167858, 48.699874 ], [ 6.167846, 48.699889 ], [ 6.167863, 48.699896 ], [ 6.167848, 48.699913 ], [ 6.167831, 48.699906 ], [ 6.167795, 48.699951 ], [ 6.16769, 48.699913 ], [ 6.167676, 48.699928 ], [ 6.16762, 48.699921 ], [ 6.167639, 48.699895 ], [ 6.167528, 48.699854 ], [ 6.167467, 48.699929 ] ] ] } },
{ "type": "Feature", "properties": { "element": "way", "id": 160341059, "name": "École Nationale Supérieure en Génie des Systèmes et de l'Innovation", "amenity": "university", "highway": null }, "geometry": { "type": "Polygon", "coordinates": [ [ [ 6.193741, 48.695135 ], [ 6.19362, 48.695075 ], [ 6.193611, 48.695071 ], [ 6.193595, 48.695094 ], [ 6.19357, 48.695132 ], [ 6.193473, 48.695103 ], [ 6.193484, 48.695089 ], [ 6.193507, 48.695057 ], [ 6.193531, 48.695024 ], [ 6.193313, 48.694909 ], [ 6.19331, 48.694908 ], [ 6.193444, 48.694796 ], [ 6.193873, 48.695026 ], [ 6.193741, 48.695135 ] ] ] } },
{ "type": "Feature", "properties": { "element": "way", "id": 160462394, "name": "Batiment E", "amenity": "university", "highway": null }, "geometry": { "type": "Polygon", "coordinates": [ [ [ 6.180265, 48.699319 ], [ 6.1801926, 48.6994616 ], [ 6.180097, 48.69965 ], [ 6.180091, 48.69965 ], [ 6.179948, 48.699916 ], [ 6.179513, 48.699808 ], [ 6.179564, 48.699713 ], [ 6.179668, 48.699739 ], [ 6.179684, 48.699713 ], [ 6.17973, 48.699723 ], [ 6.179717, 48.699747 ], [ 6.17977, 48.699759 ], [ 6.179825, 48.699773 ], [ 6.179896, 48.699644 ], [ 6.17991, 48.699619 ], [ 6.179701, 48.699566 ], [ 6.179686, 48.69959 ], [ 6.17967, 48.699616 ], [ 6.1795676, 48.6995921 ], [ 6.179669, 48.699407 ], [ 6.179772, 48.699432 ], [ 6.17976, 48.699452 ], [ 6.179747, 48.699476 ], [ 6.179957, 48.699532 ], [ 6.17997, 48.699508 ], [ 6.180042, 48.699375 ], [ 6.179986, 48.699361 ], [ 6.1796664, 48.6992824 ], [ 6.179569, 48.699257 ], [ 6.1795919, 48.6992134 ], [ 6.1796218, 48.6991609 ], [ 6.179662, 48.699076 ], [ 6.179796, 48.699114 ], [ 6.179751, 48.699192 ], [ 6.180265, 48.699319 ] ] ] } },
{ "type": "Feature", "properties": { "element": "way", "id": 187493994, "name": "Université de Lorraine - Faculté d’Odontologie", "amenity": "university", "highway": null }, "geometry": { "type": "Polygon", "coordinates": [ [ [ 6.19064, 48.6816689 ], [ 6.1905082, 48.6815781 ], [ 6.1901458, 48.6818125 ], [ 6.1901693, 48.6818285 ], [ 6.1900077, 48.681933 ], [ 6.1901035, 48.6819994 ], [ 6.1901587, 48.6820381 ], [ 6.1902263, 48.6820851 ], [ 6.1904976, 48.6819185 ], [ 6.1905336, 48.6819445 ], [ 6.1906651, 48.6820362 ], [ 6.1908807, 48.6821885 ], [ 6.1909001, 48.6822033 ], [ 6.1908293, 48.6822485 ], [ 6.1908287, 48.6822711 ], [ 6.1908752, 48.6823039 ], [ 6.1908332, 48.6823282 ], [ 6.191023, 48.6824607 ], [ 6.1908812, 48.6825501 ], [ 6.1908781, 48.6825479 ], [ 6.1908216, 48.6825835 ], [ 6.1908624, 48.6826127 ], [ 6.1909611, 48.6826837 ], [ 6.1909665, 48.6826876 ], [ 6.1911148, 48.6825956 ], [ 6.1912483, 48.6825127 ], [ 6.1912402, 48.6825076 ], [ 6.1914223, 48.6823938 ], [ 6.1914644, 48.682368 ], [ 6.1914698, 48.6823715 ], [ 6.1915197, 48.682339 ], [ 6.1915143, 48.6823348 ], [ 6.1915631, 48.6823047 ], [ 6.1912542, 48.6820913 ], [ 6.1910968, 48.6819831 ], [ 6.1910943, 48.6819813 ], [ 6.1910583, 48.6819565 ], [ 6.190977, 48.6819006 ], [ 6.1909292, 48.6818677 ], [ 6.1907964, 48.6817766 ], [ 6.19064, 48.6816689 ] ] ] } },
{ "type": "Feature", "properties": { "element": "way", "id": 193672067, "name": "IUT Nancy-Charlemagne", "amenity": "university", "highway": null }, "geometry": { "type": "Polygon", "coordinates": [ [ [ 6.1600215, 48.6829197 ], [ 6.1600091, 48.6829183 ], [ 6.1599932, 48.6829185 ], [ 6.1599767, 48.6829228 ], [ 6.159949, 48.6829337 ], [ 6.1599344, 48.6829474 ], [ 6.1599293, 48.6829642 ], [ 6.1599336, 48.6829808 ], [ 6.1599457, 48.6830238 ], [ 6.1599455, 48.6830906 ], [ 6.1598067, 48.6834558 ], [ 6.16014, 48.6835144 ], [ 6.1602099, 48.6835269 ], [ 6.1602355, 48.6835311 ], [ 6.1611156, 48.6836899 ], [ 6.1611582, 48.6836968 ], [ 6.1613257, 48.6832526 ], [ 6.1617828, 48.683338 ], [ 6.1618117, 48.683344 ], [ 6.1618168, 48.6833333 ], [ 6.161836, 48.6832862 ], [ 6.1618496, 48.6832539 ], [ 6.1618555, 48.6832398 ], [ 6.1618772, 48.6831888 ], [ 6.1618827, 48.6831757 ], [ 6.1619571, 48.6829952 ], [ 6.1619892, 48.6829037 ], [ 6.1620879, 48.6826467 ], [ 6.1616063, 48.6825101 ], [ 6.1611937, 48.682385 ], [ 6.1609467, 48.6823052 ], [ 6.1608153, 48.6822682 ], [ 6.160759, 48.6823649 ], [ 6.1602904, 48.6822866 ], [ 6.1601886, 48.6822706 ], [ 6.1601652, 48.6822786 ], [ 6.1601546, 48.6822932 ], [ 6.1600209, 48.6825173 ], [ 6.1599751, 48.6826169 ], [ 6.1599874, 48.6826191 ], [ 6.159982, 48.6826322 ], [ 6.1599949, 48.6826343 ], [ 6.1599694, 48.6827036 ], [ 6.1599441, 48.6827726 ], [ 6.1599974, 48.6827821 ], [ 6.1599771, 48.682832 ], [ 6.1600513, 48.682845 ], [ 6.1600371, 48.6828829 ], [ 6.1600215, 48.6829197 ] ] ] } },
{ "type": "Feature", "properties": { "element": "way", "id": 197049312, "name": null, "amenity": null, "highway": null }, "geometry": { "type": "Polygon", "coordinates": [ [ [ 6.171604, 48.672886 ], [ 6.171718, 48.672732 ], [ 6.1717764, 48.6726795 ], [ 6.171913, 48.672557 ], [ 6.172005, 48.6724756 ], [ 6.17206, 48.672427 ], [ 6.172067, 48.672429 ], [ 6.172078, 48.672447 ], [ 6.172128, 48.672464 ], [ 6.172156, 48.672458 ], [ 6.172164, 48.67246 ], [ 6.171843, 48.672891 ], [ 6.171785, 48.672872 ], [ 6.171731, 48.67292 ], [ 6.171804, 48.672944 ], [ 6.171799, 48.67295 ], [ 6.171604, 48.672886 ] ] ] } },
{ "type": "Feature", "properties": { "element": "way", "id": 197049327, "name": null, "amenity": null, "highway": null }, "geometry": { "type": "Polygon", "coordinates": [ [ [ 6.170743, 48.6731378 ], [ 6.1707731, 48.6730686 ], [ 6.1707992, 48.6730087 ], [ 6.1708884, 48.6729163 ], [ 6.170964, 48.6728357 ], [ 6.1709875, 48.6728395 ], [ 6.1711378, 48.6728641 ], [ 6.171391, 48.67291 ], [ 6.171548, 48.672961 ], [ 6.171478, 48.673055 ], [ 6.171416, 48.673108 ], [ 6.171344, 48.673085 ], [ 6.1712869, 48.6731653 ], [ 6.171211, 48.673272 ], [ 6.171277, 48.673293 ], [ 6.171252, 48.673359 ], [ 6.171183, 48.673453 ], [ 6.171071, 48.673418 ], [ 6.1709079, 48.6733844 ], [ 6.170741, 48.67335 ], [ 6.1707419, 48.6732538 ], [ 6.170743, 48.6731378 ] ] ] } },
{ "type": "Feature", "properties": { "element": "way", "id": 197049329, "name": null, "amenity": null, "highway": null }, "geometry": { "type": "Polygon", "coordinates": [ [ [ 6.171183, 48.673453 ], [ 6.171252, 48.673359 ], [ 6.171277, 48.673293 ], [ 6.171211, 48.673272 ], [ 6.1712869, 48.6731653 ], [ 6.171344, 48.673085 ], [ 6.171416, 48.673108 ], [ 6.171478, 48.673055 ], [ 6.171548, 48.672961 ], [ 6.171743, 48.673025 ], [ 6.171739, 48.673031 ], [ 6.171666, 48.673008 ], [ 6.171641, 48.673065 ], [ 6.171699, 48.673084 ], [ 6.171422, 48.673456 ], [ 6.171364, 48.673437 ], [ 6.17131, 48.673486 ], [ 6.171382, 48.673509 ], [ 6.171378, 48.673515 ], [ 6.171183, 48.673453 ] ] ] } },
{ "type": "Feature", "properties": { "element": "way", "id": 197049334, "name": null, "amenity": null, "highway": null }, "geometry": { "type": "Polygon", "coordinates": [ [ [ 6.1693901, 48.673078 ], [ 6.1694656, 48.6729765 ], [ 6.1694987, 48.6729322 ], [ 6.1695775, 48.6728263 ], [ 6.1696493, 48.6728496 ], [ 6.1697005, 48.672781 ], [ 6.1696286, 48.6727577 ], [ 6.169773, 48.672564 ], [ 6.1698229, 48.6725803 ], [ 6.1699393, 48.6726184 ], [ 6.169993, 48.672636 ], [ 6.1699546, 48.6728105 ], [ 6.1701171, 48.6728633 ], [ 6.1700815, 48.6729111 ], [ 6.1700267, 48.6729844 ], [ 6.1698623, 48.6729309 ], [ 6.169609, 48.673149 ], [ 6.1695561, 48.6731319 ], [ 6.1693901, 48.673078 ] ] ] } },
{ "type": "Feature", "properties": { "element": "way", "id": 197049353, "name": null, "amenity": null, "highway": null }, "geometry": { "type": "Polygon", "coordinates": [ [ [ 6.1700267, 48.6729844 ], [ 6.1700815, 48.6729111 ], [ 6.1701171, 48.6728633 ], [ 6.1702324, 48.6729003 ], [ 6.1707992, 48.6730087 ], [ 6.1707731, 48.6730686 ], [ 6.170743, 48.6731378 ], [ 6.1701583, 48.6730266 ], [ 6.1700267, 48.6729844 ] ] ] } },
{ "type": "Feature", "properties": { "element": "way", "id": 197049354, "name": null, "amenity": null, "highway": null }, "geometry": { "type": "Polygon", "coordinates": [ [ [ 6.171718, 48.672732 ], [ 6.171604, 48.672886 ], [ 6.171463, 48.67284 ], [ 6.171249, 48.672816 ], [ 6.171323, 48.672653 ], [ 6.1715089, 48.6726902 ], [ 6.171718, 48.672732 ] ] ] } },
{ "type": "Feature", "properties": { "element": "way", "id": 230329769, "name": "Université de Lorraine - Présidence Léopold", "amenity": "university", "highway": null }, "geometry": { "type": "Polygon", "coordinates": [ [ [ 6.1761955, 48.6964106 ], [ 6.1763171, 48.6962437 ], [ 6.1763261, 48.6962313 ], [ 6.1763619, 48.6961793 ], [ 6.176473, 48.696018 ], [ 6.17665, 48.695783 ], [ 6.1769863, 48.6958866 ], [ 6.1768148, 48.6961238 ], [ 6.1767556, 48.696205 ], [ 6.1768309, 48.6962264 ], [ 6.1768245, 48.6962349 ], [ 6.1768341, 48.6962386 ], [ 6.1768205, 48.6962582 ], [ 6.1768105, 48.6962556 ], [ 6.1767373, 48.6963581 ], [ 6.1766774, 48.6963392 ], [ 6.1766631, 48.6963341 ], [ 6.1766394, 48.6963662 ], [ 6.1765293, 48.6965181 ], [ 6.1761955, 48.6964106 ] ] ] } },
{ "type": "Feature", "properties": { "element": "way", "id": 230331213, "name": "Université de Lorraine - Campus Lettres et Sciences Humaines", "amenity": "university", "highway": null },